city_ascii,lat,lng,country,iso3,population
Tokyo,35.685,139.7514,Japan,JPN,35676000.0
New York,40.6943,-73.9249,United States,USA,19354922.0
Mexico City,19.4424,-99.131,Mexico,MEX,19028000.0
Mumbai,19.017,72.857,India,IND,18978000.0
Sao Paulo,-23.5587,-46.625,Brazil,BRA,18845000.0
Delhi,28.67,77.23,India,IND,15926000.0
Shanghai,31.2165,121.4365,China,CHN,14987000.0
Kolkata,22.495,88.3247,India,IND,14787000.0
Los Angeles,34.1139,-118.4068,United States,USA,12815475.0
Dhaka,23.7231,90.4086,Bangladesh,BGD,12797394.0
Buenos Aires,-34.6025,-58.3975,Argentina,ARG,12795000.0
Karachi,24.87,66.99,Pakistan,PAK,12130000.0
Cairo,30.05,31.25,Egypt,EGY,11893000.0
Rio de Janeiro,-22.925,-43.225,Brazil,BRA,11748000.0
Osaka,34.75,135.4601,Japan,JPN,11294000.0
Beijing,39.9289,116.3883,China,CHN,11106000.0
Manila,14.6042,120.9822,Philippines,PHL,11100000.0
Moscow,55.7522,37.6155,Russia,RUS,10452000.0
Istanbul,41.105,29.01,Turkey,TUR,10061000.0
Paris,48.8667,2.3333,France,FRA,9904000.0
Seoul,37.5663,126.9997,"Korea, South",KOR,9796000.0
Lagos,6.4433,3.3915,Nigeria,NGA,9466000.0
Jakarta,-6.1744,106.8294,Indonesia,IDN,9125000.0
Guangzhou,23.145,113.325,China,CHN,8829000.0
Chicago,41.8373,-87.6862,United States,USA,8675982.0
London,51.5,-0.1167,United Kingdom,GBR,8567000.0
Lima,-12.048,-77.0501,Peru,PER,8012000.0
Tehran,35.6719,51.4243,Iran,IRN,7873000.0
Kinshasa,-4.3297,15.315,Congo (Kinshasa),COD,7843000.0
Bogota,4.5964,-74.0833,Colombia,COL,7772000.0
Shenzhen,22.5524,114.1221,China,CHN,7581000.0
Wuhan,30.58,114.27,China,CHN,7243000.0
Hong Kong,22.305,114.185,Hong Kong,HKG,7206000.0
Tianjin,39.13,117.2,China,CHN,7180000.0
Chennai,13.09,80.28,India,IND,7163000.0
Taipei,25.0358,121.5683,Taiwan,TWN,6900273.0
Bengaluru,12.97,77.56,India,IND,6787000.0
Bangkok,13.75,100.5166,Thailand,THA,6704000.0
Lahore,31.56,74.35,Pakistan,PAK,6577000.0
Chongqing,29.565,106.595,China,CHN,6461000.0
Miami,25.7839,-80.2102,United States,USA,6381966.0
Hyderabad,17.4,78.48,India,IND,6376000.0
Dallas,32.7936,-96.7662,United States,USA,5733259.0
Santiago,-33.45,-70.667,Chile,CHL,5720000.0
Philadelphia,40.0077,-75.1339,United States,USA,5637884.0
Belo Horizonte,-19.915,-43.915,Brazil,BRA,5575000.0
Madrid,40.4,-3.6834,Spain,ESP,5567000.0
Houston,29.7869,-95.3905,United States,USA,5446468.0
Ahmadabad,23.0301,72.58,India,IND,5375000.0
Ho Chi Minh City,10.78,106.695,Vietnam,VNM,5314000.0
Washington,38.9047,-77.0163,United States,USA,5289420.0
Atlanta,33.7627,-84.4225,United States,USA,5228750.0
Toronto,43.7,-79.42,Canada,CAN,5213000.0
Singapore,1.293,103.8558,Singapore,SGP,5183700.0
Luanda,-8.8383,13.2344,Angola,AGO,5172900.0
Baghdad,33.3386,44.3939,Iraq,IRQ,5054000.0
Barcelona,41.3833,2.1834,Spain,ESP,4920000.0
Haora,22.5804,88.3299,India,IND,4841638.0
Shenyang,41.805,123.45,China,CHN,4787000.0
Khartoum,15.5881,32.5342,Sudan,SDN,4754000.0
Pune,18.53,73.85,India,IND,4672000.0
Boston,42.3188,-71.0846,United States,USA,4637537.0
Sydney,-33.92,151.1852,Australia,AUS,4630000.0
Saint Petersburg,59.939,30.316,Russia,RUS,4553000.0
Chittagong,22.33,91.8,Bangladesh,BGD,4529000.0
Dongguan,23.0489,113.7447,China,CHN,4528000.0
Riyadh,24.6408,46.7727,Saudi Arabia,SAU,4465000.0
Hanoi,21.0333,105.85,Vietnam,VNM,4378000.0
Guadalajara,20.67,-103.33,Mexico,MEX,4198000.0
Melbourne,-37.82,144.975,Australia,AUS,4170000.0
Alexandria,31.2,29.95,Egypt,EGY,4165000.0
Chengdu,30.67,104.07,China,CHN,4123000.0
Rangoon,16.7834,96.1667,Burma,MMR,4088000.0
Phoenix,33.5722,-112.0891,United States,USA,4081849.0
Xi'an,34.275,108.895,China,CHN,4009000.0
Porto Alegre,-30.05,-51.2,Brazil,BRA,3917000.0
Surat,21.2,72.84,India,IND,3842000.0
Hechi,23.0965,109.6091,China,CHN,3830000.0
Abidjan,5.32,-4.04,Côte D’Ivoire,CIV,3802000.0
Brasilia,-15.7833,-47.9161,Brazil,BRA,3716996.0
Ankara,39.9272,32.8644,Turkey,TUR,3716000.0
Monterrey,25.67,-100.33,Mexico,MEX,3712000.0
Yokohama,35.32,139.58,Japan,JPN,3697894.0
Nanjing,32.05,118.78,China,CHN,3679000.0
Montreal,45.5,-73.5833,Canada,CAN,3678000.0
Guiyang,26.58,106.72,China,CHN,3662000.0
Recife,-8.0756,-34.9156,Brazil,BRA,3651000.0
Seattle,47.6211,-122.3244,United States,USA,3643765.0
Harbin,45.75,126.65,China,CHN,3621000.0
San Francisco,37.7562,-122.443,United States,USA,3603761.0
Fortaleza,-3.75,-38.58,Brazil,BRA,3602319.0
Zhangzhou,24.5204,117.67,China,CHN,3531147.0
Detroit,42.3834,-83.1024,United States,USA,3522206.0
Salvador,-12.97,-38.48,Brazil,BRA,3484000.0
Busan,35.0951,129.01,"Korea, South",KOR,3480000.0
Johannesburg,-26.17,28.03,South Africa,ZAF,3435000.0
Berlin,52.5218,13.4015,Germany,DEU,3406000.0
Algiers,36.7631,3.0506,Algeria,DZA,3354000.0
Rome,41.896,12.4833,Italy,ITA,3339000.0
Pyongyang,39.0194,125.7547,"Korea, North",PRK,3300000.0
Medellin,6.275,-75.575,Colombia,COL,3297000.0
Kabul,34.5167,69.1833,Afghanistan,AFG,3277000.0
Athens,37.9833,23.7333,Greece,GRC,3242000.0
Nagoya,35.155,136.915,Japan,JPN,3230000.0
Cape Town,-33.92,18.435,South Africa,ZAF,3215000.0
San Diego,32.8312,-117.1225,United States,USA,3210314.0
Changchun,43.865,125.34,China,CHN,3183000.0
Casablanca,33.6,-7.6164,Morocco,MAR,3181000.0
Dalian,38.9228,121.6298,China,CHN,3167000.0
Cawnpore,26.46,80.32,India,IND,3162000.0
Kano,12.0,8.52,Nigeria,NGA,3140000.0
Tel Aviv-Yafo,32.08,34.77,Israel,ISR,3112000.0
Addis Ababa,9.0333,38.7,Ethiopia,ETH,3100000.0
Curitiba,-25.42,-49.32,Brazil,BRA,3084000.0
Zibo,36.8,118.05,China,CHN,3061000.0
Jeddah,21.5169,39.2192,Saudi Arabia,SAU,3012000.0
Nairobi,-1.2833,36.8167,Kenya,KEN,3010000.0
Hangzhou,30.25,120.17,China,CHN,3007000.0
Benoni,-26.1496,28.3299,South Africa,ZAF,2986000.0
Caracas,10.501,-66.917,Venezuela,VEN,2985000.0
Milan,45.47,9.205,Italy,ITA,2945000.0
Stuttgart,48.78,9.2,Germany,DEU,2944700.0
Kunming,25.07,102.68,China,CHN,2931000.0
Dar es Salaam,-6.8,39.2683,Tanzania,TZA,2930000.0
Minneapolis,44.9635,-93.2678,United States,USA,2926757.0
Jaipur,26.9211,75.81,India,IND,2917000.0
Taiyuan,37.875,112.5451,China,CHN,2913000.0
Frankfurt,50.1,8.675,Germany,DEU,2895000.0
Qingdao,36.09,120.33,China,CHN,2866000.0
Surabaya,-7.2492,112.7508,Indonesia,IDN,2845000.0
Lisbon,38.7227,-9.1449,Portugal,PRT,2812000.0
Tampa,27.9942,-82.4451,United States,USA,2804240.0
Jinan,36.675,116.995,China,CHN,2798000.0
Fukuoka,33.595,130.41,Japan,JPN,2792000.0
Campinas,-22.9,-47.1,Brazil,BRA,2791000.0
Denver,39.7621,-104.8759,United States,USA,2787266.0
Kaohsiung,22.6333,120.2666,Taiwan,TWN,2769072.0
Quezon City,14.6504,121.03,Philippines,PHL,2761720.0
Katowice,50.2604,19.02,Poland,POL,2746000.0
Aleppo,36.23,37.17,Syria,SYR,2738000.0
Durban,-29.865,30.98,South Africa,ZAF,2729000.0
Kyiv,50.4334,30.5166,Ukraine,UKR,2709000.0
Lucknow,26.855,80.915,India,IND,2695000.0
Giza,30.01,31.19,Egypt,EGY,2681863.0
Zhengzhou,34.755,113.6651,China,CHN,2636000.0
Taichung,24.1521,120.6817,Taiwan,TWN,2629323.0
Brooklyn,40.6501,-73.9496,United States,USA,2629150.0
Ibadan,7.38,3.93,Nigeria,NGA,2628000.0
Faisalabad,31.41,73.11,Pakistan,PAK,2617000.0
Fuzhou,26.08,119.3,China,CHN,2606000.0
Changsha,28.2,112.97,China,CHN,2604000.0
Dakar,14.7158,-17.4731,Senegal,SEN,2604000.0
Izmir,38.4361,27.1518,Turkey,TUR,2587000.0
Xiangtan,27.8504,112.9,China,CHN,2586948.0
Lanzhou,36.056,103.792,China,CHN,2561000.0
Incheon,37.4761,126.6422,"Korea, South",KOR,2550000.0
Sapporo,43.075,141.34,Japan,JPN,2544000.0
Xiamen,24.45,118.08,China,CHN,2519000.0
Guayaquil,-2.22,-79.92,Ecuador,ECU,2514000.0
George Town,5.4136,100.3294,Malaysia,MYS,2500000.0
Mashhad,36.27,59.57,Iran,IRN,2469000.0
Damascus,33.5,36.3,Syria,SYR,2466000.0
Daegu,35.8668,128.607,"Korea, South",KOR,2460000.0
Nagpur,21.17,79.09,India,IND,2454000.0
Lianshan,40.7503,120.83,China,CHN,2426000.0
Shijiazhuang,38.05,114.48,China,CHN,2417000.0
Tunis,36.8028,10.1797,Tunisia,TUN,2412500.0
Vienna,48.2,16.3666,Austria,AUT,2400000.0
Jilin,43.85,126.55,China,CHN,2396000.0
Omdurman,15.6167,32.48,Sudan,SDN,2395159.0
Bandung,-6.95,107.57,Indonesia,IDN,2394000.0
Bekasi,-6.2173,106.9723,Indonesia,IDN,2378211.0
Mannheim,49.5004,8.47,Germany,DEU,2362000.0
Nanchang,28.68,115.88,China,CHN,2350000.0
Wenzhou,28.02,120.6501,China,CHN,2350000.0
Queens,40.7498,-73.7976,United States,USA,2333054.0
Vancouver,49.2734,-123.1216,Canada,CAN,2313328.0
Birmingham,52.475,-1.92,United Kingdom,GBR,2285000.0
Cali,3.4,-76.5,Colombia,COL,2254000.0
Naples,40.84,14.245,Italy,ITA,2250000.0
Sendai,38.2871,141.0217,Japan,JPN,2250000.0
Manchester,53.5004,-2.248,United Kingdom,GBR,2230000.0
Puebla,19.05,-98.2,Mexico,MEX,2195000.0
Tripoli,32.8925,13.18,Libya,LBY,2189000.0
Tashkent,41.3117,69.2949,Uzbekistan,UZB,2184000.0
Havana,23.132,-82.3642,Cuba,CUB,2174000.0
Gaoping,30.7804,106.13,China,CHN,2174000.0
Baltimore,39.3051,-76.6144,United States,USA,2170504.0
Nanning,22.82,108.32,China,CHN,2167000.0
Belem,-1.45,-48.48,Brazil,BRA,2167000.0
Patna,25.625,85.13,India,IND,2158000.0
Santo Domingo,18.4701,-69.9001,Dominican Republic,DOM,2154000.0
Urumqi,43.805,87.575,China,CHN,2151000.0
Zaozhuang,34.88,117.57,China,CHN,2145000.0
Baku,40.3953,49.8622,Azerbaijan,AZE,2122300.0
Accra,5.55,-0.2167,Ghana,GHA,2121000.0
Yantai,37.5304,121.4,China,CHN,2116000.0
Medan,3.58,98.65,Indonesia,IDN,2115000.0
Santa Cruz,-17.7539,-63.226,Bolivia,BOL,2102998.0
Tongshan,34.28,117.18,China,CHN,2091000.0
Riverside,33.9381,-117.3948,United States,USA,2084749.0
Linyi,35.08,118.33,China,CHN,2082000.0
St. Louis,38.6358,-90.2451,United States,USA,2078283.0
Las Vegas,36.2333,-115.2654,United States,USA,2073045.0
Maracaibo,10.73,-71.66,Venezuela,VEN,2072000.0
Kuwait City,29.3697,47.9783,Kuwait,KWT,2063000.0
Ad Dammam,26.4282,50.0997,Saudi Arabia,SAU,2054710.0
Portland,45.5371,-122.65,United States,USA,2052796.0
Haikou,20.05,110.32,China,CHN,2046189.0
Hiroshima,34.3878,132.4429,Japan,JPN,2045000.0
Baotou,40.6522,109.822,China,CHN,2036000.0
Hefei,31.85,117.28,China,CHN,2035000.0
Indore,22.7151,75.865,India,IND,2026000.0
Goiania,-16.72,-49.3,Brazil,BRA,2022000.0
Sanaa,15.3547,44.2066,Yemen,YEM,2008000.0
San Antonio,29.4658,-98.5254,United States,USA,2002530.0
Port-au-Prince,18.541,-72.336,Haiti,HTI,1998000.0
Haiphong,20.83,106.6801,Vietnam,VNM,1969000.0
Suzhou,33.6361,116.9789,China,CHN,1964000.0
Nanyang,33.0004,112.53,China,CHN,1944000.0
Bucharest,44.4334,26.0999,Romania,ROU,1942000.0
Ningbo,29.88,121.55,China,CHN,1923000.0
Douala,4.0604,9.71,Cameroon,CMR,1906000.0
Tangshan,39.6243,118.1944,China,CHN,1879000.0
Tainan,23.0,120.2,Taiwan,TWN,1876312.0
Xiping,40.08,113.3,China,CHN,1873000.0
Asuncion,-25.2964,-57.6415,Paraguay,PRY,1870000.0
Saidu Sharif,34.75,72.35,Pakistan,PAK,1860310.0
Brisbane,-27.455,153.0351,Australia,AUS,1860000.0
Rawalpindi,33.6,73.04,Pakistan,PAK,1858000.0
Sacramento,38.5667,-121.4683,United States,USA,1854698.0
Beirut,33.872,35.5097,Lebanon,LBN,1846000.0
San Jose,37.3021,-121.8489,United States,USA,1821899.0
Minsk,53.9,27.5666,Belarus,BLR,1805000.0
Kyoto,35.03,135.75,Japan,JPN,1805000.0
Barranquilla,10.96,-74.8,Colombia,COL,1798000.0
Orlando,28.4772,-81.3369,United States,USA,1776841.0
Shuyangzha,34.1299,118.7734,China,CHN,1770000.0
Valencia,10.23,-67.98,Venezuela,VEN,1770000.0
Hamburg,53.55,10.0,Germany,DEU,1757000.0
Vadodara,22.31,73.18,India,IND,1756000.0
Manaus,-3.1,-60.0,Brazil,BRA,1753000.0
Shangqiu,34.4504,115.65,China,CHN,1753000.0
Wuxi,31.58,120.3,China,CHN,1749000.0
Palembang,-2.98,104.75,Indonesia,IDN,1749000.0
Brussels,50.8333,4.3333,Belgium,BEL,1743000.0
Essen,51.45,7.0166,Germany,DEU,1742135.0
Cleveland,41.4767,-81.6805,United States,USA,1730363.0
Bhopal,23.25,77.41,India,IND,1727000.0
Hohhot,40.82,111.66,China,CHN,1726000.0
Pittsburgh,40.4396,-79.9763,United States,USA,1715297.0
Luoyang,34.68,112.4701,China,CHN,1715000.0
Santos,-23.9537,-46.3329,Brazil,BRA,1709000.0
Jingling,30.6501,113.16,China,CHN,1708000.0
Warsaw,52.25,21.0,Poland,POL,1707000.0
Rabat,34.0253,-6.8361,Morocco,MAR,1705000.0
Vitoria,-20.324,-40.366,Brazil,BRA,1704000.0
Quito,-0.215,-78.5001,Ecuador,ECU,1701000.0
Antananarivo,-18.9166,47.5166,Madagascar,MDG,1697000.0
Coimbatore,11.0,76.95,India,IND,1696000.0
Daqing,46.58,125.0,China,CHN,1693000.0
Lu'an,31.7503,116.48,China,CHN,1690000.0
Sanzhou,30.82,108.4,China,CHN,1680000.0
Budapest,47.5,19.0833,Hungary,HUN,1679000.0
Turin,45.0704,7.67,Italy,ITA,1652000.0
Suzhou,31.3005,120.62,China,CHN,1650000.0
Ludhiana,30.9278,75.8723,India,IND,1649000.0
Cincinnati,39.1412,-84.506,United States,USA,1648254.0
Kumasi,6.69,-1.63,Ghana,GHA,1646000.0
Manhattan,40.7834,-73.9662,United States,USA,1643734.0
Qiqihar,47.345,123.99,China,CHN,1641000.0
Anshan,41.115,122.94,China,CHN,1639000.0
Austin,30.3006,-97.7517,United States,USA,1638716.0
Zhongli,24.965,121.2168,Taiwan,TWN,1632616.0
Handan,36.58,114.48,China,CHN,1631000.0
Tai'an,36.2,117.1201,China,CHN,1629000.0
Esfahan,32.7,51.7,Iran,IRN,1628000.0
Kansas City,39.1239,-94.5541,United States,USA,1615621.0
Yaounde,3.8667,11.5167,Cameroon,CMR,1611000.0
Shantou,23.37,116.67,China,CHN,1601000.0
Agra,27.1704,78.015,India,IND,1592000.0
Zhanjiang,21.2,110.38,China,CHN,1590000.0
La Paz,-16.498,-68.15,Bolivia,BOL,1590000.0
Kalyan,19.2502,73.1602,India,IND,1576614.0
Abuja,9.0833,7.5333,Nigeria,NGA,1576000.0
Harare,-17.8178,31.0447,Zimbabwe,ZWE,1572000.0
Indianapolis,39.7771,-86.1458,United States,USA,1564699.0
Xiantao,30.3704,113.44,China,CHN,1556000.0
Khulna,22.84,89.56,Bangladesh,BGD,1553000.0
Weifang,36.7204,119.1001,China,CHN,1553000.0
Tijuana,32.5,-117.08,Mexico,MEX,1553000.0
Santiago,19.5,-70.67,Dominican Republic,DOM,1550753.0
Xinyang,32.1304,114.07,China,CHN,1541000.0
Luzhou,28.88,105.38,China,CHN,1537000.0
Perth,-31.955,115.84,Australia,AUS,1532000.0
Toluca,19.3304,-99.67,Mexico,MEX,1531000.0
Vishakhapatnam,17.73,83.305,India,IND,1529000.0
Leeds,53.83,-1.58,United Kingdom,GBR,1529000.0
Kobe,34.68,135.17,Japan,JPN,1528478.0
Columbus,39.986,-82.9851,United States,USA,1528314.0
Multan,30.2,71.455,Pakistan,PAK,1522000.0
Kochi,10.015,76.2239,India,IND,1519000.0
Montevideo,-34.858,-56.1711,Uruguay,URY,1513000.0
Gujranwala,32.1604,74.185,Pakistan,PAK,1513000.0
Niteroi,-22.9,-43.1,Brazil,BRA,1500513.0
Ganzhou,25.92,114.95,China,CHN,1500000.0
Florence,43.78,11.25,Italy,ITA,1500000.0
Liuzhou,24.28,109.25,China,CHN,1497000.0
Bamako,12.65,-8.0,Mali,MLI,1494000.0
Conakry,9.5315,-13.6802,Guinea,GIN,1494000.0
Bursa,40.2,29.07,Turkey,TUR,1492000.0
Leon de los Aldama,21.15,-101.7,Mexico,MEX,1488000.0
Virginia Beach,36.7335,-76.0435,United States,USA,1480383.0
Nasik,20.0004,73.78,India,IND,1473000.0
Fushun,41.8654,123.87,China,CHN,1470000.0
Changde,29.03,111.68,China,CHN,1469000.0
Daejeon,36.3355,127.425,"Korea, South",KOR,1468000.0
Charlotte,35.2079,-80.8304,United States,USA,1467362.0
Phnom Penh,11.55,104.9166,Cambodia,KHM,1466000.0
Neijiang,29.5804,105.05,China,CHN,1466000.0
Quanzhou,24.9,118.58,China,CHN,1463000.0
Kharkiv,50.0,36.25,Ukraine,UKR,1461000.0
Hyderabad City,25.38,68.375,Pakistan,PAK,1459000.0
Bronx,40.8501,-73.8662,United States,USA,1455720.0
Lome,6.1319,1.2228,Togo,TGO,1452000.0
Cordoba,-31.4,-64.1823,Argentina,ARG,1452000.0
Huainan,32.63,116.98,China,CHN,1451000.0
Doha,25.2866,51.533,Qatar,QAT,1450000.0
Kuala Lumpur,3.1667,101.7,Malaysia,MYS,1448000.0
Maputo,-25.9553,32.5892,Mozambique,MOZ,1446000.0
Kaduna,10.52,7.44,Nigeria,NGA,1442000.0
Gwangju,35.171,126.9104,"Korea, South",KOR,1440000.0
Kawanakajima,35.53,139.705,Japan,JPN,1437266.0
San Salvador,13.71,-89.203,El Salvador,SLV,1433000.0
Suining,30.5333,105.5333,China,CHN,1425000.0
Lyon,45.77,4.83,France,FRA,1423000.0
Karaj,35.8004,50.97,Iran,IRN,1423000.0
Kampala,0.3167,32.5833,Uganda,UGA,1420000.0
Tabriz,38.0863,46.3012,Iran,IRN,1413000.0
The Hague,52.08,4.27,Netherlands,NLD,1406000.0
Davao,7.11,125.63,Philippines,PHL,1402000.0
Marseille,43.29,5.375,France,FRA,1400000.0
Meerut,29.0004,77.7,India,IND,1398000.0
Mianyang,31.47,104.77,China,CHN,1396000.0
Semarang,-6.9666,110.42,Indonesia,IDN,1396000.0
Faridabad,28.4333,77.3167,India,IND,1394000.0
Novosibirsk,55.03,82.96,Russia,RUS,1389000.0
Mecca,21.43,39.82,Saudi Arabia,SAU,1385000.0
Dubai,25.23,55.28,United Arab Emirates,ARE,1379000.0
Milwaukee,43.0642,-87.9673,United States,USA,1377808.0
Auckland,-36.8481,174.763,New Zealand,NZL,1377200.0
Ma'anshan,31.7304,118.48,China,CHN,1366302.0
Brazzaville,-4.2592,15.2847,Congo (Brazzaville),COG,1355000.0
Yiyang,28.6004,112.33,China,CHN,1352000.0
Varanasi,25.33,83.0,India,IND,1352000.0
Lubumbashi,-11.68,27.48,Congo (Kinshasa),COD,1352000.0
Juarez,31.6904,-106.49,Mexico,MEX,1343000.0
Ghaziabad,28.6604,77.4084,India,IND,1341000.0
Pretoria,-25.7069,28.2294,South Africa,ZAF,1338000.0
Heze,35.23,115.45,China,CHN,1338000.0
Porto,41.15,-8.62,Portugal,PRT,1337000.0
Asansol,23.6833,86.9833,India,IND,1328000.0
Lusaka,-15.4166,28.2833,Zambia,ZMB,1328000.0
Changzhou,31.78,119.97,China,CHN,1327000.0
Mosul,36.345,43.145,Iraq,IRQ,1316000.0
Yekaterinburg,56.85,60.6,Russia,RUS,1313000.0
Peshawar,34.005,71.535,Pakistan,PAK,1303000.0
Mandalay,21.97,96.085,Burma,MMR,1300000.0
Jamshedpur,22.7875,86.1975,India,IND,1300000.0
Mbuji-Mayi,-6.15,23.6,Congo (Kinshasa),COD,1295000.0
Madura,9.92,78.12,India,IND,1294000.0
Adana,36.995,35.32,Turkey,TUR,1293000.0
Sheffield,53.3667,-1.5,United Kingdom,GBR,1292900.0
Jabalpur,23.1751,79.9551,India,IND,1285000.0
San Jose,9.935,-84.0841,Costa Rica,CRI,1284000.0
Panama City,8.968,-79.533,Panama,PAN,1281000.0
Nizhniy Novgorod,56.333,44.0001,Russia,RUS,1278000.0
Chifeng,42.27,118.95,China,CHN,1277000.0
Duisburg,51.43,6.75,Germany,DEU,1276757.0
Munich,48.1299,11.575,Germany,DEU,1275000.0
Huaiyin,33.58,119.03,China,CHN,1264000.0
Stockholm,59.3508,18.0973,Sweden,SWE,1264000.0
Makassar,-5.14,119.432,Indonesia,IDN,1262000.0
Rajkot,22.31,70.8,India,IND,1260000.0
Dhanbad,23.8004,86.42,India,IND,1246000.0
Mudanjiang,44.575,129.59,China,CHN,1244000.0
Geneva,46.21,6.14,Switzerland,CHE,1240000.0
Shiraz,29.63,52.57,Iran,IRN,1240000.0
Huzhou,30.8704,120.1,China,CHN,1231000.0
Beidao,34.6,105.92,China,CHN,1225000.0
Shuangshui,26.5944,104.8333,China,CHN,1221000.0
Dusseldorf,51.2204,6.78,Germany,DEU,1220000.0
Gaozhou,21.9204,110.87,China,CHN,1217715.0
Sevilla,37.405,-5.98,Spain,ESP,1212045.0
Amritsar,31.64,74.87,India,IND,1212000.0
Vila Velha,-20.3676,-40.318,Brazil,BRA,1209091.0
Vila Velha,3.2167,-51.2167,Brazil,BRA,1209091.0
Almaty,43.325,76.915,Kazakhstan,KAZ,1209000.0
Providence,41.823,-71.4187,United States,USA,1206642.0
Warangal,18.01,79.58,India,IND,1203853.0
Rosario,-32.9511,-60.6663,Argentina,ARG,1203000.0
Allahabad,25.455,81.84,India,IND,1201000.0
Benin City,6.3405,5.62,Nigeria,NGA,1190000.0
Jining,35.4004,116.55,China,CHN,1186000.0
Maceio,-9.62,-35.73,Brazil,BRA,1186000.0
Sofia,42.6833,23.3167,Bulgaria,BGR,1185000.0
Abbottabad,34.1495,73.1995,Pakistan,PAK,1183647.0
Benghazi,32.1167,20.0667,Libya,LBY,1180000.0
Cilacap,-7.7188,109.0154,Indonesia,IDN,1174964.0
Prague,50.0833,14.466,Czechia,CZE,1162000.0
Glasgow,55.8744,-4.2507,United Kingdom,GBR,1160000.0
Leshan,29.5671,103.7333,China,CHN,1157000.0
Jacksonville,30.3322,-81.6749,United States,USA,1156291.0
Ouagadougou,12.3703,-1.5247,Burkina Faso,BFA,1149000.0
Ottawa,45.4167,-75.7,Canada,CAN,1145000.0
Adelaide,-34.935,138.6,Australia,AUS,1145000.0
Shangrao,28.4704,117.97,China,CHN,1144577.0
Torreon,25.5701,-103.42,Mexico,MEX,1144000.0
Srinagar,34.1,74.815,India,IND,1140000.0
Bezwada,16.52,80.63,India,IND,1137000.0
Samara,53.195,50.1513,Russia,RUS,1137000.0
Omsk,54.99,73.4,Russia,RUS,1135000.0
Newcastle,-32.8453,151.815,Australia,AUS,1134616.0
Yulin,22.63,110.15,China,CHN,1127000.0
Namp'o,38.7669,125.4524,"Korea, North",PRK,1127000.0
Xianyang,34.3456,108.7147,China,CHN,1126000.0
Cagayan de Oro,8.4508,124.6853,Philippines,PHL,1121561.0
Can Tho,10.05,105.77,Vietnam,VNM,1121000.0
Barquisimeto,10.05,-69.3,Venezuela,VEN,1116000.0
Helsinki,60.1756,24.9341,Finland,FIN,1115000.0
Kazan',55.7499,49.1263,Russia,RUS,1115000.0
Aurangabad,19.8957,75.3203,India,IND,1113000.0
Calgary,51.083,-114.08,Canada,CAN,1110000.0
Ciudad Nezahualcoyotl,19.41,-99.03,Mexico,MEX,1109363.0
Zurich,47.38,8.55,Switzerland,CHE,1108000.0
Baoding,38.8704,115.48,China,CHN,1107000.0
Zigong,29.4,104.78,China,CHN,1105000.0
Sharjah,25.3714,55.4065,United Arab Emirates,ARE,1103027.0
Yerevan,40.1812,44.5136,Armenia,ARM,1102000.0
Mogadishu,2.0667,45.3667,Somalia,SOM,1100000.0
Tbilisi,41.725,44.7908,Georgia,GEO,1100000.0
Ankang,32.68,109.02,China,CHN,1100000.0
Huambo,-12.75,15.76,Angola,AGO,1100000.0
Ikare,7.5304,5.76,Nigeria,NGA,1099931.0
Belgrade,44.8186,20.468,Serbia,SRB,1099000.0
Salt Lake City,40.7774,-111.93,United States,USA,1098400.0
Bhilai,21.2167,81.4333,India,IND,1097000.0
Jinhua,29.12,119.65,China,CHN,1092852.0
Chelyabinsk,55.155,61.4387,Russia,RUS,1091000.0
Natal,-5.78,-35.24,Brazil,BRA,1088000.0
Dushanbe,38.56,68.7739,Tajikistan,TJK,1086244.0
Copenhagen,55.6786,12.5635,Denmark,DNK,1085000.0
Changwon,35.2191,128.5836,"Korea, South",KOR,1081499.0
Zhuzhou,27.83,113.15,China,CHN,1080000.0
Suwon,37.2578,127.0109,"Korea, South",KOR,1078000.0
Nashville,36.1715,-86.7843,United States,USA,1076645.0
Vereeniging,-26.6496,27.96,South Africa,ZAF,1074000.0
Xiangyang,32.02,112.13,China,CHN,1069000.0
Memphis,35.1046,-89.9773,United States,USA,1068873.0
Ulsan,35.5467,129.317,"Korea, South",KOR,1061000.0
Amman,31.95,35.9333,Jordan,JOR,1060000.0
Mizhou,35.99,119.3801,China,CHN,1060000.0
Richmond,37.5295,-77.4756,United States,USA,1059907.0
Dublin,53.3331,-6.2489,Ireland,IRL,1059000.0
Edmonton,53.55,-113.5,Canada,CAN,1058000.0
Solapur,17.6704,75.9,India,IND,1057000.0
Rostov-na-Donu,47.2346,39.7127,Russia,RUS,1052000.0
Dnipro,48.48,35.0,Ukraine,UKR,1050000.0
Xining,36.62,101.77,China,CHN,1048000.0
Zhangjiakou,40.83,114.93,China,CHN,1046000.0
Lille,50.65,3.08,France,FRA,1044000.0
Ranchi,23.37,85.33,India,IND,1044000.0
Gaziantep,37.075,37.385,Turkey,TUR,1044000.0
Monrovia,6.3106,-10.8048,Liberia,LBR,1041000.0
Sao Luis,-2.516,-44.266,Brazil,BRA,1038000.0
Amsterdam,52.35,4.9166,Netherlands,NLD,1031000.0
Jerusalem,31.7784,35.2066,Israel,ISR,1029300.0
New Orleans,30.0687,-89.9288,United States,USA,1029123.0
Guatemala City,14.6211,-90.527,Guatemala,GTM,1024000.0
Zhuhai,22.2769,113.5678,China,CHN,1023000.0
Florianopolis,-27.58,-48.52,Brazil,BRA,1023000.0
Port Elizabeth,-33.97,25.6,South Africa,ZAF,1021000.0
Jiamusi,46.83,130.35,China,CHN,1020000.0
Port Harcourt,4.81,7.01,Nigeria,NGA,1020000.0
Raleigh,35.8324,-78.6438,United States,USA,1018336.0
Ufa,54.79,56.04,Russia,RUS,1018000.0
Hengyang,26.88,112.59,China,CHN,1016000.0
Benxi,41.3304,123.75,China,CHN,1012000.0
Louisville,38.1663,-85.6485,United States,USA,1011696.0
Haifa,32.8204,34.98,Israel,ISR,1011000.0
Medina,24.5,39.58,Saudi Arabia,SAU,1010000.0
Bucaramanga,7.1301,-73.1259,Colombia,COL,1009000.0
Maracay,10.2469,-67.5958,Venezuela,VEN,1007000.0
Rotterdam,51.92,4.48,Netherlands,NLD,1005000.0
Homs,34.73,36.72,Syria,SYR,1005000.0
Cologne,50.93,6.95,Germany,DEU,1004000.0
Qinhuangdao,39.9304,119.62,China,CHN,1003000.0
Fes,34.0546,-5.0004,Morocco,MAR,1002000.0
N'Djamena,12.1131,15.0491,Chad,TCD,989000.0
Tegucigalpa,14.102,-87.2175,Honduras,HND,946000.0
Kingston,17.9771,-76.7674,Jamaica,JAM,937700.0
Nay Pyi Taw,19.7666,96.1186,Burma,MMR,930000.0
Djibouti,11.595,43.148,Djibouti,DJI,923000.0
Managua,12.153,-86.2685,Nicaragua,NIC,920000.0
Niamey,13.5167,2.1167,Niger,NER,915000.0
Tirana,41.3275,19.8189,Albania,ALB,895350.0
Kathmandu,27.7167,85.3166,Nepal,NPL,895000.0
Ulaanbaatar,47.9167,106.9166,Mongolia,MNG,885000.0
Kigali,-1.9536,30.0605,Rwanda,RWA,860000.0
Bishkek,42.8731,74.5852,Kyrgyzstan,KGZ,837000.0
Oslo,59.9167,10.75,Norway,NOR,835000.0
Bangui,4.3666,18.5583,Central African Republic,CAF,831925.0
Freetown,8.47,-13.2342,Sierra Leone,SLE,827000.0
Islamabad,33.7,73.1666,Pakistan,PAK,780000.0
Cotonou,6.4,2.52,Benin,BEN,762000.0
Vientiane,17.9667,102.6,Laos,LAO,754000.0
Riga,56.95,24.1,Latvia,LVA,742572.0
Nouakchott,18.0864,-15.9753,Mauritania,MRT,742144.0
Muscat,23.6133,58.5933,Oman,OMN,734697.0
Ashgabat,37.95,58.3833,Turkmenistan,TKM,727700.0
Zagreb,45.8,16.0,Croatia,HRV,722526.0
Sarajevo,43.85,18.383,Bosnia And Herzegovina,BIH,696731.0
Chisinau,47.005,28.8577,Moldova,MDA,688134.0
Lilongwe,-13.9833,33.7833,Malawi,MWI,646750.0
Asmara,15.3333,38.9333,Eritrea,ERI,620802.0
Abu Dhabi,24.4667,54.3666,United Arab Emirates,ARE,603492.0
Port Louis,-20.1666,57.5,Mauritius,MUS,595491.0
Libreville,0.3854,9.458,Gabon,GAB,578156.0
Manama,26.2361,50.5831,Bahrain,BHR,563920.0
Vilnius,54.6834,25.3166,Lithuania,LTU,542366.0
Skopje,42.0,21.4335,Macedonia,MKD,494087.0
Bloemfontein,-29.12,26.2299,South Africa,ZAF,463064.0
Bratislava,48.15,17.117,Slovakia,SVK,423737.0
Bissau,11.865,-15.5984,Guinea-Bissau,GNB,403339.0
Tallinn,59.4339,24.728,Estonia,EST,394024.0
Wellington,-41.3,174.7833,New Zealand,NZL,393400.0
Valletta,35.8997,14.5147,Malta,MLT,368250.0
Maseru,-29.3167,27.4833,Lesotho,LSO,361324.0
Nur-Sultan,51.1811,71.4278,Kazakhstan,KAZ,345604.0
Bujumbura,-3.3761,29.36,Burundi,BDI,331700.0
Canberra,-35.283,149.129,Australia,AUS,327700.0
New Delhi,28.6,77.2,India,IND,317797.0
Ljubljana,46.0553,14.515,Slovenia,SVN,314807.0
Porto-Novo,6.4833,2.6166,Benin,BEN,300000.0
Bandar Seri Begawan,4.8833,114.9333,Brunei,BRN,296500.0
Port of Spain,10.652,-61.517,Trinidad And Tobago,TTO,294934.0
Port Moresby,-9.4647,147.1925,Papua New Guinea,PNG,283733.0
Bern,46.9167,7.467,Switzerland,CHE,275329.0
Windhoek,-22.57,17.0835,Namibia,NAM,268132.0
Georgetown,6.802,-58.167,Guyana,GUY,264350.0
Paramaribo,5.835,-55.167,Suriname,SUR,254169.0
Dili,-8.5594,125.5795,Timor-Leste,TLS,234331.0
Nassau,25.0834,-77.35,"Bahamas, The",BHS,227940.0
Sucre,-19.041,-65.2595,Bolivia,BOL,224838.0
Nicosia,35.1667,33.3666,Cyprus,CYP,224300.0
Dodoma,-6.1833,35.75,Tanzania,TZA,218269.0
Colombo,6.932,79.8578,Sri Lanka,LKA,217000.0
Gaborone,-24.6463,25.9119,Botswana,BWA,208411.0
Yamoussoukro,6.8184,-5.2755,Côte D’Ivoire,CIV,206499.0
Bridgetown,13.102,-59.6165,Barbados,BRB,191152.0
Suva,-18.133,178.4417,Fiji,FJI,175399.0
Reykjavik,64.15,-21.95,Iceland,ISL,166212.0
Malabo,3.75,8.7833,Equatorial Guinea,GNQ,155963.0
Willemstad,12.2004,-69.02,Curaçao,CUW,146813.0
Podgorica,42.466,19.2663,Montenegro,MNE,145850.0
Moroni,-11.7042,43.2402,Comoros,COM,128698.0
Sri Jayewardenepura Kotte,6.9,79.95,Sri Lanka,LKA,115826.0
Praia,14.9167,-23.5167,Cabo Verde,CPV,113364.0
Male,4.1667,73.4999,Maldives,MDV,112927.0
Juba,4.83,31.58,South Sudan,SSD,111975.0
Luxembourg,49.6117,6.13,Luxembourg,LUX,107260.0
Thimphu,27.473,89.639,Bhutan,BTN,98676.0
Mbabane,-26.3167,31.1333,Swaziland,SWZ,90138.0
Sao Tome,0.3334,6.7333,Sao Tome And Principe,STP,88219.0
Honiara,-9.438,159.9498,Solomon Islands,SLB,76328.0
Oranjestad,12.5304,-70.029,Aruba,ABW,68775.0
Apia,-13.8415,-171.7386,Samoa,WSM,61916.0
Andorra la Vella,42.5,1.5165,Andorra,AND,53998.0
Kingstown,13.1483,-61.2121,Saint Vincent And The Grenadines,VCT,49485.0
Port-Vila,-17.7334,168.3166,Vanuatu,VUT,44040.0
Banjul,13.4539,-16.5917,"Gambia, The",GMB,43094.0
Nuku`alofa,-21.1385,-175.2206,Tonga,TON,42620.0
Castries,14.002,-61.0,Saint Lucia,LCA,37963.0
Monaco,43.7396,7.4069,Monaco,MCO,36371.0
Vaduz,47.1337,9.5167,Liechtenstein,LIE,36281.0
Saint John's,17.118,-61.85,Antigua And Barbuda,ATG,35499.0
Saint George's,12.0526,-61.7416,Grenada,GRD,33734.0
Victoria,-4.6166,55.45,Seychelles,SYC,33576.0
San Marino,43.9172,12.4667,San Marino,SMR,29579.0
Tarawa,1.3382,173.0176,Kiribati,KIR,28802.0
Majuro,7.103,171.38,Marshall Islands,MHL,25400.0
Roseau,15.301,-61.387,Dominica,DMA,23336.0
Basseterre,17.302,-62.717,Saint Kitts And Nevis,KNA,21887.0
Belmopan,17.252,-88.7671,Belize,BLZ,15220.0
Pago Pago,-14.274,-170.7046,American Samoa,ASM,12576.0
Lobamba,-26.4667,31.2,Swaziland,SWZ,9782.0
Funafuti,-8.5167,179.2166,Tuvalu,TUV,4749.0
Palikir,6.9166,158.15,"Micronesia, Federated States Of",FSM,4645.0
Capitol Hill,15.2137,145.7546,Northern Mariana Islands,MNP,2500.0
Hagta,13.4745,144.7504,Guam,GUM,1051.0
Al Quds,31.7764,35.2269,West Bank,XWB,
Philipsburg,18.0255,-63.045,Sint Maarten,SXM,
Gitega,-3.4271,29.9246,Burundi,BDI,
Pristina,42.6666,21.1724,Kosovo,XKS,
Ngerulmud,7.5,134.6242,Palau,PLW,
Aden,12.7797,45.0095,Yemen,YEM,1000000.0
Cochabamba,-17.41,-66.17,Bolivia,BOL,1000000.0
Yongzhou,26.2304,111.62,China,CHN,1000000.0
Baoshan,25.12,99.15,China,CHN,1000000.0
Quang Ha,16.06,108.25,Vietnam,VNM,1000000.0
Kitaku,33.8704,130.82,Japan,JPN,997536.0
Perm',58.0,56.25,Russia,RUS,997000.0
Ahvaz,31.28,48.72,Iran,IRN,996000.0
Jodhpur,26.2918,73.0168,India,IND,995000.0
San Luis Potosi,22.17,-101.0,Mexico,MEX,992000.0
Odesa,46.49,30.71,Ukraine,UKR,991000.0
Yinchuan,38.468,106.273,China,CHN,991000.0
Jiaxing,30.7704,120.75,China,CHN,988000.0
Joinvile,-26.32,-48.8399,Brazil,BRA,988000.0
Donets'k,48.0,37.83,Ukraine,UKR,988000.0
Guilin,25.28,110.28,China,CHN,987000.0
Dahuk,36.8667,43.0,Iraq,IRQ,986000.0
Volgograd,48.71,44.5,Russia,RUS,984000.0
Guwahati,26.16,91.77,India,IND,983000.0
Yichun,27.8333,114.4,China,CHN,982000.0
Yangquan,37.87,113.57,China,CHN,981448.0
Natal,-6.9838,-60.2699,Brazil,BRA,980588.0
Chandigarh,30.72,76.78,India,IND,979000.0
Gwalior,26.23,78.1801,India,IND,978000.0
Hamamatsu,34.7181,137.7327,Japan,JPN,977023.0
Qom,34.65,50.95,Iran,IRN,973000.0
Jixi,45.3,130.97,China,CHN,965000.0
Merida,20.9666,-89.6166,Mexico,MEX,965000.0
Xin'an,34.38,118.35,China,CHN,962656.0
Queretaro,20.63,-100.38,Mexico,MEX,961000.0
Pingxiang,27.62,113.85,China,CHN,961000.0
Joao Pessoa,-7.1011,-34.8761,Brazil,BRA,956000.0
Klang,3.0204,101.55,Malaysia,MYS,956000.0
Jinzhou,41.1204,121.1,China,CHN,956000.0
Oklahoma City,35.4676,-97.5137,United States,USA,955998.0
Salerno,40.6804,14.7699,Italy,ITA,954265.0
Thiruvananthapuram,8.5,76.95,India,IND,954000.0
Calicut,11.2504,75.77,India,IND,953000.0
Trichinopoly,10.81,78.69,India,IND,951000.0
Ogbomoso,8.13,4.24,Nigeria,NGA,951000.0
General Santos,6.1108,125.1747,Philippines,PHL,950530.0
Hue,16.47,107.58,Vietnam,VNM,950000.0
Bacolod,10.6317,122.9817,Philippines,PHL,949354.0
Nantong,32.0304,120.825,China,CHN,947000.0
Foshan,23.0301,113.12,China,CHN,943000.0
Songnam,37.4386,127.1378,"Korea, South",KOR,942000.0
Bridgeport,41.1918,-73.1953,United States,USA,938406.0
Nice,43.715,7.265,France,FRA,927000.0
Buffalo,42.9017,-78.8487,United States,USA,926261.0
Erbil,36.179,44.0086,Iraq,IRQ,926000.0
Krasnoyarsk,56.014,92.866,Russia,RUS,925000.0
Olinda,-8.0,-34.85,Brazil,BRA,921840.0
Antwerp,51.2204,4.415,Belgium,BEL,920000.0
Konya,37.875,32.475,Turkey,TUR,919000.0
Bogor,-6.57,106.75,Indonesia,IDN,918000.0
Hartford,41.7661,-72.6834,United States,USA,914751.0
Huaibei,33.9504,116.75,China,CHN,913000.0
Xinyu,27.8,114.93,China,CHN,913000.0
Teresina,-5.095,-42.78,Brazil,BRA,907000.0
Naha,26.2072,127.673,Japan,JPN,905238.0
Goyang,37.6527,126.8372,"Korea, South",KOR,903000.0
Nangandao,35.3204,113.87,China,CHN,903000.0
Yibin,28.77,104.57,China,CHN,902000.0
Aba,5.1004,7.35,Nigeria,NGA,897560.0
Maiduguri,11.85,13.16,Nigeria,NGA,896000.0
Az Zarqa',32.07,36.1,Jordan,JOR,894691.0
Tarsus,36.9204,34.88,Turkey,TUR,894318.0
Bengbu,32.95,117.33,China,CHN,894000.0
Mendoza,-32.8833,-68.8166,Argentina,ARG,893000.0
Hubli,15.36,75.125,India,IND,890000.0
Concepcion,-36.83,-73.05,Chile,CHL,889725.0
Zaria,11.08,7.71,Nigeria,NGA,889000.0
Dengtalu,36.08,114.35,China,CHN,887000.0
Cartagena,10.3997,-75.5144,Colombia,COL,887000.0
Mysore,12.31,76.66,India,IND,887000.0
Mexicali,32.65,-115.48,Mexico,MEX,885000.0
Tongliao,43.62,122.27,China,CHN,884000.0
Mombasa,-4.04,39.6899,Kenya,KEN,882000.0
Newcastle upon Tyne,55.0004,-1.6,United Kingdom,GBR,882000.0
Novo Hamburgo,-29.7096,-51.14,Brazil,BRA,876990.0
Callao,-12.07,-77.135,Peru,PER,876877.0
Bilbao,43.25,-2.93,Spain,ESP,875552.0
Johor Bahru,1.48,103.73,Malaysia,MYS,875000.0
Raipur,21.235,81.635,India,IND,875000.0
Xiaoxita,30.7,111.28,China,CHN,875000.0
Fort Worth,32.7812,-97.3472,United States,USA,874168.0
Salem,11.67,78.1801,India,IND,873000.0
Yangjiang,21.8504,111.97,China,CHN,872363.0
Marrakech,31.63,-8.0,Morocco,MAR,872000.0
Kaifeng Chengguanzhen,34.85,114.35,China,CHN,872000.0
Dandong,40.1436,124.3936,China,CHN,870000.0
Al Basrah,30.5135,47.8136,Iraq,IRQ,870000.0
Aguascalientes,21.8795,-102.2904,Mexico,MEX,869000.0
Tucson,32.1545,-110.8782,United States,USA,868391.0
Okayama,34.672,133.9171,Japan,JPN,866092.0
Bucheon,37.4989,126.7831,"Korea, South",KOR,866000.0
Xuanzhou,30.9525,118.7553,China,CHN,866000.0
Bandar Lampung,-5.43,105.27,Indonesia,IDN,865000.0
Rizhao,35.4304,119.45,China,CHN,865000.0
Palermo,38.125,13.35,Italy,ITA,863000.0
Caerdydd,51.5,-3.225,United Kingdom,GBR,861400.0
Tampico,22.3,-97.87,Mexico,MEX,859419.0
Jiaozuo,35.25,113.22,China,CHN,857000.0
Padang,-0.96,100.36,Indonesia,IDN,855000.0
Jalandhar,31.3349,75.569,India,IND,855000.0
Zhenjiang,32.22,119.43,China,CHN,854000.0
Valparaiso,-33.0478,-71.621,Chile,CHL,854000.0
Pingdingshan,33.7304,113.3,China,CHN,849000.0
Zunyi,27.7,106.92,China,CHN,849000.0
Anshun,26.2504,105.93,China,CHN,849000.0
Toulouse,43.62,1.4499,France,FRA,847000.0
El Paso,31.8479,-106.4309,United States,USA,845674.0
Iguacu,-22.74,-43.47,Brazil,BRA,844583.0
Bhubaneshwar,20.2704,85.8274,India,IND,844000.0
Voronezh,51.73,39.27,Russia,RUS,844000.0
Saratov,51.58,46.03,Russia,RUS,843000.0
Yuci,37.6804,112.73,China,CHN,840000.0
Yancheng,33.3856,120.1253,China,CHN,839000.0
Cuernavaca,18.9211,-99.24,Mexico,MEX,834001.0
Linfen,36.0803,111.52,China,CHN,834000.0
Honolulu,21.3294,-157.846,United States,USA,833671.0
Warri,5.52,5.76,Nigeria,NGA,830106.0
Basel,47.5804,7.59,Switzerland,CHE,830000.0
San Miguel de Tucuman,-26.816,-65.2166,Argentina,ARG,830000.0
Kermanshah,34.38,47.06,Iran,IRN,828313.0
Thessaloniki,40.6961,22.885,Greece,GRC,828000.0
Omaha,41.2628,-96.0498,United States,USA,827786.0
Kota,25.18,75.835,India,IND,827000.0
Braga,41.555,-8.4213,Portugal,PRT,826833.0
Jhansi,25.453,78.5575,India,IND,826494.0
Rongjiawan,29.3801,113.1,China,CHN,826000.0
Nottingham,52.9703,-1.17,United Kingdom,GBR,825600.0
Agadir,30.44,-9.62,Morocco,MAR,825467.0
Butterworth,5.4171,100.4,Malaysia,MYS,821652.0
Bareilly,28.3454,79.42,India,IND,817000.0
Jos,9.93,8.89,Nigeria,NGA,816824.0
Xingyi,25.0904,104.89,China,CHN,816000.0
Cebu City,10.32,123.9001,Philippines,PHL,815000.0
Arequipa,-16.42,-71.53,Peru,PER,815000.0
Liverpool,53.416,-2.918,United Kingdom,GBR,811000.0
Wuhu,31.3504,118.37,China,CHN,810000.0
Langfang,39.5204,116.68,China,CHN,810000.0
Rajshahi,24.375,88.605,Bangladesh,BGD,810000.0
Zhaotong,27.3204,103.72,China,CHN,809000.0
Culiacan,24.83,-107.38,Mexico,MEX,809000.0
Valencia,39.485,-0.4,Spain,ESP,808000.0
Lingyuan,41.24,119.4011,China,CHN,806000.0
Cuiaba,-15.5696,-56.085,Brazil,BRA,806000.0
Quy Nhon,13.78,109.18,Vietnam,VNM,805290.0
Malang,-7.98,112.61,Indonesia,IDN,805000.0
Aligarh,27.8922,78.0618,India,IND,805000.0
L'viv,49.835,24.03,Ukraine,UKR,803880.0
Bordeaux,44.85,-0.595,France,FRA,803000.0
McAllen,26.2273,-98.2471,United States,USA,800904.0
Baojishi,34.38,107.15,China,CHN,800000.0
Pekanbaru,0.565,101.425,Indonesia,IDN,799000.0
Oran,35.71,-0.62,Algeria,DZA,798000.0
Yingkou,40.6703,122.28,China,CHN,795000.0
Bhiwandi,19.35,73.13,India,IND,795000.0
Liaoyang,41.28,123.18,China,CHN,794000.0
Chihuahua,28.645,-106.085,Mexico,MEX,793000.0
Jammu,32.7118,74.8467,India,IND,791000.0
Melaka,2.2064,102.2465,Malaysia,MYS,788706.0
Zaporizhzhya,47.8573,35.1768,Ukraine,UKR,788000.0
Moradabad,28.8418,78.7568,India,IND,787000.0
Antalya,36.89,30.7,Turkey,TUR,783000.0
Al Hudaydah,14.7979,42.953,Yemen,YEM,780000.0
Campo Grande,-20.45,-54.6166,Brazil,BRA,778000.0
Shaoxing,30.0004,120.57,China,CHN,777000.0
Yichun,47.6999,128.9,China,CHN,777000.0
Mangalore,12.9,74.85,India,IND,776632.0
Wuppertal,51.25,7.17,Germany,DEU,776525.0
Cheongju,36.6439,127.5012,"Korea, South",KOR,775096.0
Zamboanga City,6.92,122.08,Philippines,PHL,773000.0
Hamhung,39.9101,127.5454,"Korea, North",PRK,773000.0
Fuyang,30.0533,119.9519,China,CHN,771000.0
Ilorin,8.49,4.55,Nigeria,NGA,771000.0
Saarbrucken,49.2504,6.97,Germany,DEU,770001.0
Fuxin,42.0105,121.66,China,CHN,770000.0
Shiyan,32.57,110.78,China,CHN,770000.0
Quetta,30.22,67.025,Pakistan,PAK,768000.0
Trujillo,-8.12,-79.02,Peru,PER,765171.0
Kananga,-5.89,22.4,Congo (Kinshasa),COD,765000.0
Trabzon,40.98,39.72,Turkey,TUR,764714.0
Jincheng,35.5004,112.83,China,CHN,760000.0
Albuquerque,35.1053,-106.6464,United States,USA,758523.0
Lodz,51.775,19.4514,Poland,POL,758000.0
Krakow,50.06,19.96,Poland,POL,756000.0
Saltillo,25.42,-101.005,Mexico,MEX,754000.0
Sao Jose dos Campos,-23.2,-45.8799,Brazil,BRA,753769.0
Hungnam,39.8231,127.6232,"Korea, North",PRK,751322.0
Ta`izz,13.6045,44.0394,Yemen,YEM,751000.0
Pietermaritzburg,-29.61,30.39,South Africa,ZAF,750845.0
Tangier,35.7473,-5.8327,Morocco,MAR,750060.0
Hsinchu,24.8168,120.9767,Taiwan,TWN,750000.0
Changhua,24.0734,120.5134,Taiwan,TWN,750000.0
Kolhapur,16.7,74.22,India,IND,750000.0
Farg`ona,40.39,71.78,Uzbekistan,UZB,750000.0
Namangan,41.0,71.67,Uzbekistan,UZB,750000.0
Liege,50.63,5.58,Belgium,BEL,749110.0
Ciudad Guayana,8.37,-62.62,Venezuela,VEN,746535.0
Birmingham,33.5277,-86.7987,United States,USA,744189.0
Hegang,47.4,130.37,China,CHN,743307.0
Naga City,13.6192,123.1814,Philippines,PHL,741635.0
Gdansk,54.36,18.64,Poland,POL,740000.0
Ansan,37.3481,126.8595,"Korea, South",KOR,739493.0
Nuremberg,49.45,11.08,Germany,DEU,737304.0
Oyo,7.8504,3.93,Nigeria,NGA,736072.0
Amravati,20.95,77.77,India,IND,734451.0
Denpasar,-8.65,115.22,Indonesia,IDN,732344.0
Sokoto,13.06,5.24,Nigeria,NGA,732178.0
Beihai,21.4804,109.1,China,CHN,728978.0
Bremen,53.08,8.8,Germany,DEU,724909.0
As Sulaymaniyah,35.5613,45.4309,Iraq,IRQ,723170.0
Hannover,52.367,9.7167,Germany,DEU,722490.0
Cucuta,7.92,-72.52,Colombia,COL,722146.0
Hamilton,43.25,-79.83,Canada,CAN,721053.0
Moshi,-3.3396,37.34,Tanzania,TZA,721018.0
Shaoguan,24.8,113.58,China,CHN,720266.0
Kumamoto,32.8009,130.7006,Japan,JPN,718232.0
Dayton,39.7797,-84.1998,United States,USA,718169.0
Xinpu,34.6004,119.17,China,CHN,715600.0
Acapulco de Juarez,16.85,-99.916,Mexico,MEX,715584.0
Kandahar,31.61,65.6949,Afghanistan,AFG,715542.0
Dehra Dun,30.3204,78.05,India,IND,714223.0
Rochester,43.168,-77.6162,United States,USA,711998.0
Jeonju,35.8314,127.1404,"Korea, South",KOR,711424.0
Samarkand,39.67,66.945,Uzbekistan,UZB,708000.0
Qingyuan,23.7004,113.0301,China,CHN,706717.0
Sarasota,27.3386,-82.543,United States,USA,706245.0
Changzhi,36.1839,113.1053,China,CHN,706000.0
Tol'yatti,53.4804,49.53,Russia,RUS,702879.0
Jaboatao,-8.11,-35.02,Brazil,BRA,702621.0
Shizuoka,34.9858,138.3854,Japan,JPN,701561.0
Bulawayo,-20.17,28.58,Zimbabwe,ZWE,699385.0
Soledad,10.92,-74.77,Colombia,COL,698852.0
Fresno,36.7831,-119.7941,United States,USA,698021.0
Meknes,33.9004,-5.56,Morocco,MAR,697628.0
La Plata,-34.9096,-57.96,Argentina,ARG,694253.0
Malegaon,20.5604,74.525,India,IND,690844.0
Enugu,6.45,7.5,Nigeria,NGA,688862.0
Huangshi,30.22,115.1,China,CHN,688090.0
Aracaju,-10.9,-37.12,Brazil,BRA,685356.0
Allentown,40.5961,-75.4755,United States,USA,682899.0
Bonn,50.7205,7.08,Germany,DEU,680543.0
San Pedro Sula,15.5,-88.03,Honduras,HND,680091.0
Nellore,14.44,79.9899,India,IND,678004.0
Catania,37.5,15.08,Italy,ITA,674542.0
Gorakhpur,26.7504,83.38,India,IND,674246.0
Ipoh,4.6,101.065,Malaysia,MYS,673318.0
Ch'ongjin,41.7846,129.79,"Korea, North",PRK,672614.0
Tulsa,36.1284,-95.9043,United States,USA,672054.0
Utsunomiya,36.55,139.87,Japan,JPN,667752.0
Puyang Chengguanzhen,35.7004,114.98,China,CHN,666322.0
An Najaf,32.0003,44.3354,Iraq,IRQ,665552.0
Sao Jose dos Pinhais,-25.57,-49.18,Brazil,BRA,665063.0
Santo Andre,-23.6528,-46.5278,Brazil,BRA,662373.0
Bytom,50.35,18.91,Poland,POL,662247.0
Pointe-Noire,-4.77,11.88,Congo (Brazzaville),COG,659084.0
At Ta'if,21.2622,40.3823,Saudi Arabia,SAU,657282.0
Ismailia,30.5903,32.26,Egypt,EGY,656135.0
Concord,37.9722,-122.0016,United States,USA,654770.0
Shimoga,13.9304,75.56,India,IND,654055.0
Bien Hoa,10.97,106.8301,Vietnam,VNM,652646.0
Xiping,25.6005,103.8166,China,CHN,652604.0
Kryvyy Rih,47.9283,33.345,Ukraine,UKR,652380.0
Irbid,32.55,35.85,Jordan,JOR,650000.0
Tiruppur,11.0804,77.33,India,IND,650000.0
Andijon,40.79,72.34,Uzbekistan,UZB,650000.0
Krasnodar,45.02,39.0,Russia,RUS,649851.0
Zaragoza,41.65,-0.89,Spain,ESP,649404.0
Genoa,44.41,8.93,Italy,ITA,647497.0
Diyarbakir,37.9204,40.23,Turkey,TUR,644763.0
Morelia,19.7334,-101.1895,Mexico,MEX,644306.0
Ul'yanovsk,54.33,48.41,Russia,RUS,640680.0
Utrecht,52.1003,5.12,Netherlands,NLD,640000.0
Kikwit,-5.03,18.85,Congo (Kinshasa),COD,637736.0
Al Hufuf,25.3487,49.5856,Saudi Arabia,SAU,637389.0
Yogyakarta,-7.78,110.375,Indonesia,IDN,636660.0
Wroclaw,51.1104,17.03,Poland,POL,634893.0
Winnipeg,49.883,-97.166,Canada,CAN,632063.0
Izhevsk,56.85,53.23,Russia,RUS,631038.0
Cape Coral,26.6445,-81.9955,United States,USA,630134.0
Springfield,42.1155,-72.5395,United States,USA,628076.0
Zhuozhou,39.5401,115.79,China,CHN,628000.0
Raurkela,22.2304,84.83,India,IND,625831.0
Quebec,46.84,-71.2456,Canada,CAN,624177.0
Poznan,52.4058,16.8999,Poland,POL,623997.0
Colorado Springs,38.8674,-104.7606,United States,USA,623946.0
Port Said,31.26,32.29,Egypt,EGY,623864.0
Nanded,19.17,77.3,India,IND,623708.0
Bannu,32.989,70.5986,Pakistan,PAK,622419.0
Southend-on-Sea,51.55,0.72,United Kingdom,GBR,618386.0
Dresden,51.05,13.75,Germany,DEU,617515.0
Wiesbaden,50.0804,8.25,Germany,DEU,617126.0
Charleston,32.8151,-79.963,United States,USA,616085.0
Changping,40.2248,116.1944,China,CHN,614821.0
Palu,-0.907,119.833,Indonesia,IDN,612445.0
Taizhou,32.4904,119.9,China,CHN,612356.0
Xingtai,37.05,114.5,China,CHN,611739.0
Samsun,41.28,36.3437,Turkey,TUR,609339.0
Luxor,25.7,32.65,Egypt,EGY,609248.0
Belgaum,15.865,74.505,India,IND,608756.0
Pontianak,-0.03,109.32,Indonesia,IDN,607311.0
Yaroslavl',57.62,39.87,Russia,RUS,606730.0
Constantine,36.36,6.5999,Algeria,DZA,605179.0
Banjarmasin,-3.33,114.5801,Indonesia,IDN,603576.0
Grand Rapids,42.9615,-85.6557,United States,USA,602694.0
Kirkuk,35.4722,44.3923,Iraq,IRQ,601433.0
Sangli,16.8604,74.575,India,IND,601214.0
Barcelona,10.1304,-64.72,Venezuela,VEN,600954.0
Mission Viejo,33.6095,-117.655,United States,USA,600474.0
Suhaj,26.5504,31.7,Egypt,EGY,600000.0
Al Mansurah,31.0504,31.38,Egypt,EGY,600000.0
Canoas,-29.92,-51.18,Brazil,BRA,600000.0
Barnaul,53.355,83.745,Russia,RUS,599579.0
Zahedan,29.5,60.83,Iran,IRN,598887.0
Jalalabad,34.4415,70.4361,Afghanistan,AFG,597971.0
Albany,42.6664,-73.7987,United States,USA,597270.0
Chiclayo,-6.7629,-79.8366,Peru,PER,596792.0
Hermosillo,29.0989,-110.9541,Mexico,MEX,595811.0
Chanda,19.97,79.3,India,IND,595118.0
Al Hillah,32.4721,44.4217,Iraq,IRQ,594605.0
Al Hillah,23.4895,46.7564,Saudi Arabia,SAU,594605.0
Rasht,37.3,49.63,Iran,IRN,594590.0
Nagano,36.65,138.17,Japan,JPN,594311.0
Vinh,18.7,105.68,Vietnam,VNM,593645.0
Abeokuta,7.1604,3.35,Nigeria,NGA,593100.0
Kayseri,38.735,35.49,Turkey,TUR,592840.0
Samarinda,-0.5,117.15,Indonesia,IDN,592228.0
Ajmer,26.45,74.64,India,IND,589985.0
Dortmund,51.53,7.45,Germany,DEU,588462.0
Vladivostok,43.13,131.91,Russia,RUS,587022.0
Irkutsk,52.32,104.245,Russia,RUS,586695.0
Knoxville,35.9692,-83.9496,United States,USA,585249.0
Blantyre,-15.79,34.9899,Malawi,MWI,584877.0
Baton Rouge,30.4419,-91.131,United States,USA,583613.0
Anqing,30.5,117.05,China,CHN,580497.0
Cuttack,20.47,85.8899,India,IND,580000.0
Hachioji,35.6577,139.3261,Japan,JPN,579399.0
Khabarovsk,48.455,135.12,Russia,RUS,579000.0
Veracruz,19.1773,-96.16,Mexico,MEX,578963.0
Kisangani,0.52,25.22,Congo (Kinshasa),COD,578470.0
Kerman,30.3,57.08,Iran,IRN,577514.0
Orumiyeh,37.53,45.0,Iran,IRN,577307.0
Bikaner,28.0304,73.3299,India,IND,576015.0
Quetzaltenango,14.83,-91.52,Guatemala,GTM,575263.0
Bakersfield,35.353,-119.0359,United States,USA,574362.0
Ogden,41.228,-111.9677,United States,USA,573632.0
Shihezi,44.3,86.0299,China,CHN,573182.0
Kuching,1.53,110.33,Malaysia,MYS,570407.0
Shuozhou,39.3004,112.42,China,CHN,570000.0
Niigata,37.92,139.04,Japan,JPN,569797.0
Pereira,4.8104,-75.68,Colombia,COL,568750.0
Macau,22.203,113.545,Macau,MAC,568700.0
New Haven,41.3112,-72.9246,United States,USA,568144.0
Bouake,7.69,-5.03,Côte D’Ivoire,CIV,567481.0
Columbia,34.0376,-80.9037,United States,USA,566166.0
Akron,41.0798,-81.5219,United States,USA,565920.0
Binjai,3.6204,98.5001,Indonesia,IDN,564979.0
Uberlandia,-18.9,-48.28,Brazil,BRA,563536.0
Sorocaba,-23.49,-47.47,Brazil,BRA,563281.0
Wusong,30.9504,117.78,China,CHN,562832.0
Weihai,37.5,122.1,China,CHN,560255.0
Mar del Plata,-38.0,-57.58,Argentina,ARG,555897.0
Santiago de Cuba,20.025,-75.8213,Cuba,CUB,555865.0
Siping,43.17,124.33,China,CHN,555609.0
Kagoshima,31.586,130.5611,Japan,JPN,555352.0
Surakarta,-7.565,110.825,Indonesia,IDN,555308.0
Makhachkala,42.98,47.5,Russia,RUS,554981.0
Bhavnagar,21.7784,72.13,India,IND,554978.0
Uyo,5.008,7.85,Nigeria,NGA,554906.0
Bristol,51.45,-2.5833,United Kingdom,GBR,553528.0
Bahawalpur,29.39,71.675,Pakistan,PAK,552607.0
Kenitra,34.2704,-6.58,Morocco,MAR,551786.0
Ribeirao Preto,-21.17,-47.83,Brazil,BRA,551267.0
Kanazawa,36.56,136.64,Japan,JPN,551249.0
Orenburg,51.78,55.11,Russia,RUS,550204.0
Malaga,36.7204,-4.42,Spain,ESP,550058.0
Tabuk,28.3838,36.555,Saudi Arabia,SAU,547957.0
Puerto La Cruz,10.17,-64.68,Venezuela,VEN,546616.0
Jiujiang,29.73,115.98,China,CHN,545616.0
Hisar,29.17,75.725,India,IND,544829.0
Kashgar,39.4763,75.9699,China,CHN,543914.0
Matola,-25.9696,32.46,Mozambique,MOZ,543907.0
Bilaspur,22.0904,82.16,India,IND,543454.0
Sargodha,32.0854,72.675,Pakistan,PAK,542603.0
Leipzig,51.3354,12.41,Germany,DEU,542529.0
Tinnevelly,8.7304,77.69,India,IND,542200.0
Cancun,21.17,-86.83,Mexico,MEX,542043.0
Yangzhou,32.4,119.43,China,CHN,539715.0
Novokuznetsk,53.75,87.115,Russia,RUS,539616.0
Latakia,35.54,35.78,Syria,SYR,539147.0
Heroica Matamoros,25.88,-97.5,Mexico,MEX,538785.0
Goteborg,57.75,12.0,Sweden,SWE,537797.0
Otsu,35.0064,135.8674,Japan,JPN,536976.0
Tomsk,56.495,84.975,Russia,RUS,535479.0
Linxia Chengguanzhen,35.6,103.2,China,CHN,534555.0
Matsuyama,33.8455,132.7658,Japan,JPN,533541.0
Rouen,49.4304,1.08,France,FRA,532559.0
Jiangmen,22.5804,113.08,China,CHN,532419.0
Oaxaca,17.0827,-96.6699,Mexico,MEX,530728.0
Beira,-19.82,34.87,Mozambique,MOZ,530604.0
Guntur,16.33,80.45,India,IND,530577.0
Tripoli,34.42,35.87,Lebanon,LBN,530000.0
Hamadan,34.796,48.515,Iran,IRN,528256.0
Cangzhou,38.3204,116.87,China,CHN,527681.0
Kota Kinabalu,5.98,116.11,Malaysia,MYS,527671.0
Gold Coast,-28.0815,153.4482,Australia,AUS,527660.0
Ji'an,27.1304,115.0,China,CHN,520248.0
Londrina,-23.3,-51.18,Brazil,BRA,520238.0
Ryazan',54.62,39.72,Russia,RUS,520173.0
Shashi,30.32,112.23,China,CHN,520000.0
Bello,6.33,-75.57,Colombia,COL,519670.0
Tyumen',57.14,65.53,Russia,RUS,519119.0
Lipetsk,52.62,39.64,Russia,RUS,515655.0
Shiliguri,26.7204,88.455,India,IND,515574.0
Eskisehir,39.795,30.53,Turkey,TUR,514869.0
Banda Aceh,5.55,95.32,Indonesia,IDN,513698.0
Ujjain,23.1904,75.79,India,IND,513350.0
Salta,-24.7834,-65.4166,Argentina,ARG,512686.0
Penza,53.18,45.0,Russia,RUS,512602.0
Blida,36.4203,2.83,Algeria,DZA,511348.0
Mykolayiv,46.9677,31.9843,Ukraine,UKR,510840.0
Karbala',32.6149,44.0245,Iraq,IRQ,510692.0
Suez,30.005,32.5499,Egypt,EGY,508335.0
Gliwice,50.3304,18.67,Poland,POL,507670.0
Bukittinggi,-0.3031,100.3615,Indonesia,IDN,506964.0
Liaoyuan,42.9,125.13,China,CHN,506548.0
Kota Bharu,6.12,102.23,Malaysia,MYS,505583.0
Jundiai,-23.2,-46.88,Brazil,BRA,505548.0
Edinburgh,55.9483,-3.2191,United Kingdom,GBR,504966.0
Tlaxcala,19.32,-98.23,Mexico,MEX,503878.0
Provo,40.2457,-111.6457,United States,USA,503695.0
Arak,34.0804,49.7,Iran,IRN,503647.0
Davangere,14.47,75.92,India,IND,503564.0
Vina del Mar,-33.03,-71.54,Chile,CHL,503534.0
Pingtung,22.6817,120.4817,Taiwan,TWN,503530.0
Annaba,36.92,7.76,Algeria,DZA,503524.0
Akola,20.71,77.01,India,IND,503502.0
Brighton,50.8303,-0.17,United Kingdom,GBR,503008.0
Astrakhan',46.3487,48.055,Russia,RUS,502533.0
Bradford,53.8,-1.75,United Kingdom,GBR,501700.0
Bari,41.1142,16.8728,Italy,ITA,500577.0
Damanhur,31.0504,30.47,Egypt,EGY,500000.0
Al Minya,28.09,30.75,Egypt,EGY,500000.0
Taoyuan District,24.9889,121.3111,Taiwan,TWN,500000.0
Keelung,25.1333,121.7333,Taiwan,TWN,500000.0
San Lorenzo,-25.34,-57.52,Paraguay,PRY,500000.0
Pasuruan,-7.6296,112.9,Indonesia,IDN,500000.0
Chiayi,23.4755,120.4351,Taiwan,TWN,500000.0
Thai Nguyen,21.6,105.83,Vietnam,VNM,500000.0
Awka,6.2104,7.07,Nigeria,NGA,500000.0
Shuangyashan,46.6704,131.35,China,CHN,500000.0
Mazatan,29.0171,-110.1333,Mexico,MEX,500000.0
Tsu,34.7171,136.5167,Japan,JPN,500000.0
Mataram,-8.5795,116.135,Indonesia,IDN,499409.0
Macapa,0.033,-51.05,Brazil,BRA,499166.0
Worcester,42.2705,-71.8079,United States,USA,498997.0
Reynosa,26.08,-98.3,Mexico,MEX,498654.0
Shahrisabz,39.0618,66.8315,Uzbekistan,UZB,498545.0
Mesa,33.4017,-111.7181,United States,USA,496401.0
Duma,33.5833,36.4,Syria,SYR,496145.0
Mwanza,-2.52,32.93,Tanzania,TZA,493944.0
Wuwei,37.928,102.641,China,CHN,493092.0
Palm Bay,27.955,-80.6628,United States,USA,489912.0
Port Sudan,19.6158,37.2164,Sudan,SDN,489725.0
Santa Fe,-31.6239,-60.69,Argentina,ARG,489505.0
Tula,54.2,37.6299,Russia,RUS,489486.0
Bani Suwayf,29.0804,31.09,Egypt,EGY,489450.0
Yanji,42.8823,129.5128,China,CHN,488740.0
Toledo,41.6639,-83.5822,United States,USA,488672.0
Bologna,44.5004,11.34,Italy,ITA,488172.0
Brookhaven,40.8321,-72.9518,United States,USA,487731.0
Saharanpur,29.97,77.55,India,IND,484873.0
Murrieta,33.572,-117.1909,United States,USA,483681.0
Gulbarga,17.35,76.82,India,IND,483615.0
Bhatpara,22.8504,88.52,India,IND,483129.0
Wichita,37.6897,-97.3441,United States,USA,483057.0
Ile-Ife,7.4804,4.56,Nigeria,NGA,482365.0
Feira de Santana,-12.25,-38.97,Brazil,BRA,481911.0
Shah Alam,3.0667,101.55,Malaysia,MYS,481654.0
Mariupol',47.0962,37.5562,Ukraine,UKR,481626.0
Des Moines,41.5725,-93.6105,United States,USA,481222.0
Tuxtla,16.75,-93.15,Mexico,MEX,481128.0
Herat,34.33,62.17,Afghanistan,AFG,481009.0
Homyel',52.43,31.0,Belarus,BLR,480951.0
Zhaoqing,23.0504,112.45,China,CHN,480000.0
Americana,-22.7499,-47.33,Brazil,BRA,479472.0
Dhulia,20.9,74.77,India,IND,479073.0
Ostrava,49.8304,18.25,Czechia,CZE,478963.0
Yazd,31.9201,54.37,Iran,IRN,477905.0
Sialkot City,32.52,74.56,Pakistan,PAK,477396.0
Kemerovo,55.34,86.09,Russia,RUS,477090.0
Nazret,8.55,39.27,Ethiopia,ETH,476892.0
Staten Island,40.5834,-74.1496,United States,USA,476015.0
Jiaojiangcun,28.6804,121.45,China,CHN,471500.0
Chaoyang,41.5504,120.42,China,CHN,470296.0
Juiz de Fora,-21.77,-43.375,Brazil,BRA,470193.0
Udaipur,24.6,73.73,India,IND,469737.0
Long Beach,33.798,-118.1675,United States,USA,469450.0
Greenville,34.8362,-82.3649,United States,USA,467894.0
Kocaeli,40.776,29.9306,Turkey,TUR,466504.0
Piraeus,37.95,23.7,Greece,GRC,466065.0
Shymkent,42.32,69.595,Kazakhstan,KAZ,465392.0
Iligan,8.1712,124.2154,Philippines,PHL,464599.0
Qazvin,36.27,50.0,Iran,IRN,464551.0
Calabar,4.9604,8.33,Nigeria,NGA,461796.0
Malatya,38.3704,38.3,Turkey,TUR,461574.0
Dadukou,26.55,101.73,China,CHN,461513.0
Bandar `Abbas,27.2041,56.2721,Iran,IRN,461499.0
Naberezhnyye Chelny,55.7,52.3199,Russia,RUS,461086.0
Hamah,35.1503,36.73,Syria,SYR,460602.0
Cranbourne,-38.0996,145.2834,Australia,AUS,460491.0
Iquitos,-3.75,-73.25,Peru,PER,458729.0
Mazar-e Sharif,36.7,67.1,Afghanistan,AFG,458151.0
Leicester,52.63,-1.1332,United Kingdom,GBR,457983.0
Kirov,58.5901,49.67,Russia,RUS,457437.0
Jingdezhen,29.2704,117.18,China,CHN,457298.0
Durango,24.0311,-104.67,Mexico,MEX,457140.0
Jambi,-1.59,103.61,Indonesia,IDN,457090.0
Volta Redonda,-22.5196,-44.095,Brazil,BRA,456362.0
Hengshui,37.72,115.7,China,CHN,456356.0
Sfax,34.75,10.72,Tunisia,TUN,453050.0
Sunderland,54.92,-1.38,United Kingdom,GBR,452934.0
Xalapa,19.53,-96.92,Mexico,MEX,452186.0
Luhans'k,48.5698,39.3344,Ukraine,UKR,452000.0
Manado,1.48,124.85,Indonesia,IDN,451893.0
Qaraghandy,49.885,73.115,Kazakhstan,KAZ,451800.0
An Nasiriyah,31.0429,46.2676,Iraq,IRQ,451547.0
Oshawa,43.88,-78.85,Canada,CAN,450963.0
Taihecun,45.8,130.85,China,CHN,450617.0
Belfast,54.6,-5.96,United Kingdom,GBR,450406.0
Sanliurfa,37.17,38.795,Turkey,TUR,449549.0
Chengde,40.9604,117.93,China,CHN,449325.0
Jiangguanchi,34.0204,113.82,China,CHN,449258.0
Chlef,36.1704,1.32,Algeria,DZA,449167.0
Oita,33.2432,131.5979,Japan,JPN,448907.0
Baguio City,16.43,120.5699,Philippines,PHL,447824.0
San Juan,-31.55,-68.52,Argentina,ARG,447048.0
Cheboksary,56.13,47.25,Russia,RUS,446781.0
Ado-Ekiti,7.6304,5.22,Nigeria,NGA,446749.0
Balikpapan,-1.25,116.83,Indonesia,IDN,445905.0
Bellary,15.15,76.915,India,IND,445388.0
Bamenda,5.96,10.15,Cameroon,CMR,445299.0
Gent,51.03,3.7,Belgium,BEL,444336.0
Tokushima,34.0674,134.5525,Japan,JPN,443760.0
Little Rock,34.7255,-92.358,United States,USA,442699.0
Wuzhou,23.48,111.32,China,CHN,442315.0
Portsmouth,50.8003,-1.08,United Kingdom,GBR,442252.0
Harrisburg,40.2752,-76.8843,United States,USA,441580.0
Cabimas,10.43,-71.45,Venezuela,VEN,441094.0
Foz do Iguacu,-25.5235,-54.53,Brazil,BRA,440455.0
Denton,33.2176,-97.1419,United States,USA,440146.0
Wakayama,34.2231,135.1677,Japan,JPN,440006.0
Strasbourg,48.58,7.75,France,FRA,439972.0
Madison,43.0827,-89.3923,United States,USA,439553.0
Mawlamyine,16.5004,97.67,Burma,MMR,438861.0
San Cristobal,7.77,-72.25,Venezuela,VEN,438798.0
Nantes,47.2104,-1.59,France,FRA,438537.0
Khujand,40.29,69.6199,Tajikistan,TJK,437684.0
Guangyuan,32.43,105.87,China,CHN,437435.0
Khomeyni Shahr,32.7004,51.47,Iran,IRN,437138.0
Garoua,9.3,13.39,Cameroon,CMR,436899.0
Bukavu,-2.51,28.84,Congo (Kinshasa),COD,436779.0
Tuticorin,8.82,78.13,India,IND,436094.0
Nagasaki,32.765,129.885,Japan,JPN,435455.0
Pohang,36.0209,129.3715,"Korea, South",KOR,435266.0
Kaliningrad,54.7,20.4973,Russia,RUS,434954.0
Likasi,-10.97,26.78,Congo (Kinshasa),COD,434408.0
Reno,39.5497,-119.8483,United States,USA,433271.0
Spanish Town,17.9833,-76.95,Jamaica,JAM,432704.0
Port St. Lucie,27.2796,-80.3884,United States,USA,432589.0
San Luis,-33.3,-66.35,Argentina,ARG,432310.0
Katsina,12.9904,7.6,Nigeria,NGA,432149.0
Welkom,-27.97,26.73,South Africa,ZAF,431944.0
Santa Marta,11.2472,-74.2017,Colombia,COL,431781.0
Villahermosa,18.0,-92.9,Mexico,MEX,428564.0
Bryansk,53.26,34.43,Russia,RUS,427236.0
Bournemouth,50.73,-1.9,United Kingdom,GBR,426945.0
Bengkulu,-3.8,102.27,Indonesia,IDN,426673.0
Heidelberg,49.42,8.7,Germany,DEU,426590.0
Oakland,37.7903,-122.2165,United States,USA,425195.0
Kurnool,15.83,78.03,India,IND,424920.0
Chaozhou,23.68,116.63,China,CHN,424787.0
Batangas,13.7817,121.0217,Philippines,PHL,424508.0
Gaya,24.8,85.0,India,IND,423692.0
Ibague,4.4389,-75.2322,Colombia,COL,421685.0
Ivanovo,57.01,41.01,Russia,RUS,420839.0
Erzurum,39.9204,41.29,Turkey,TUR,420691.0
Akure,7.2504,5.2,Nigeria,NGA,420594.0
Asyut,27.19,31.1799,Egypt,EGY,420585.0
Kolwezi,-10.7167,25.4724,Congo (Kinshasa),COD,418000.0
Sukkur,27.7136,68.8486,Pakistan,PAK,417767.0
Luohe,33.57,114.03,China,CHN,417356.0
Campina Grande,-7.23,-35.88,Brazil,BRA,417261.0
Kitchener,43.45,-80.5,Canada,CAN,417001.0
Winston-Salem,36.1029,-80.261,United States,USA,416581.0
Middlesbrough,54.5804,-1.23,United Kingdom,GBR,416042.0
Meizhou,24.3005,116.12,China,CHN,414930.0
Ardabil,38.25,48.3,Iran,IRN,414603.0
Magnitogorsk,53.4227,58.98,Russia,RUS,413351.0
Gifu,35.4231,136.7628,Japan,JPN,412895.0
Huancayo,-12.08,-75.2,Peru,PER,412733.0
Nha Trang,12.25,109.17,Vietnam,VNM,411556.0
Maturin,9.75,-63.17,Venezuela,VEN,410972.0
Zhangjiakou Shi Xuanhua Qu,40.5944,115.0243,China,CHN,409745.0
Kursk,51.74,36.19,Russia,RUS,409431.0
Oujda-Angad,34.69,-1.91,Morocco,MAR,409391.0
Metz,49.1203,6.18,France,FRA,409186.0
Al `Ayn,24.2305,55.74,United Arab Emirates,ARE,408733.0
Jeju,33.5101,126.5219,"Korea, South",KOR,408364.0
Osogbo,7.7704,4.56,Nigeria,NGA,408245.0
Indio,33.7346,-116.2346,United States,USA,408097.0
Ipatinga,-19.4796,-42.52,Brazil,BRA,407894.0
Szczecin,53.4204,14.53,Poland,POL,407811.0
Durham,35.9795,-78.9032,United States,USA,407575.0
Syracuse,43.0409,-76.1438,United States,USA,407259.0
Chattanooga,35.0657,-85.2487,United States,USA,407182.0
Murcia,37.98,-1.13,Spain,ESP,406807.0
Tanta,30.7904,31.0,Egypt,EGY,404901.0
Kitwe,-12.81,28.22,Zambia,ZMB,404901.0
Lancaster,40.042,-76.3012,United States,USA,404525.0
Zanzibar,-6.16,39.2,Tanzania,TZA,403658.0
Taubate,-23.0195,-45.56,Brazil,BRA,403560.0
Ghulja,43.9,81.35,China,CHN,403489.0
Pasay City,14.5504,121.0,Philippines,PHL,403064.0
Spokane,47.6671,-117.433,United States,USA,403043.0
Mbale,1.0904,34.17,Uganda,UGA,402368.0
Palm Coast,29.5392,-81.246,United States,USA,401757.0
Kassala,15.46,36.39,Sudan,SDN,401477.0
Sunch'on,39.4236,125.939,"Korea, North",PRK,400629.0
Tver',56.86,35.89,Russia,RUS,400212.0
Sikar,27.6104,75.14,India,IND,400000.0
Jiangjiafan,31.0304,112.1,China,CHN,400000.0
Surgut,61.2599,73.425,Russia,RUS,400000.0
Tumkur,13.33,77.1,India,IND,399606.0
Gomez Palacio,25.5701,-103.5,Mexico,MEX,399328.0
Buraydah,26.3664,43.9628,Saudi Arabia,SAU,398581.0
Khmel'nyts'kyy,49.4249,27.0015,Ukraine,UKR,398346.0
Eindhoven,51.43,5.5,Netherlands,NLD,398053.0
Chiang Mai,18.8,98.98,Thailand,THA,397211.0
Piura,-5.21,-80.63,Peru,PER,396932.0
Horlivka,48.2996,38.0547,Ukraine,UKR,396885.0
Arlington,32.6998,-97.1251,United States,USA,396394.0
Ndola,-12.9999,28.65,Zambia,ZMB,396339.0
Yuxi,24.38,102.57,China,CHN,396325.0
Bonita Springs,26.3559,-81.7861,United States,USA,396220.0
Poughkeepsie,41.6949,-73.921,United States,USA,396041.0
Kisumu,-0.09,34.75,Kenya,KEN,395615.0
Stockton,37.9766,-121.3111,United States,USA,394467.0
Quilon,8.9004,76.57,India,IND,394163.0
El Obeid,13.1833,30.2167,Sudan,SDN,393311.0
Nyala,12.06,24.89,Sudan,SDN,392373.0
Sandakan,5.843,118.108,Malaysia,MYS,392288.0
Ahmadnagar,19.1104,74.75,India,IND,391760.0
Osh,40.5404,72.79,Kyrgyzstan,KGZ,391277.0
Stoke-on-Trent,53.0004,-2.18,United Kingdom,GBR,390801.0
Bhilwara,25.3504,74.635,India,IND,389911.0
Oxnard,34.1962,-119.1819,United States,USA,389792.0
Comilla,23.4704,91.17,Bangladesh,BGD,389411.0
Augusta,33.3645,-82.0708,United States,USA,389383.0
Scranton,41.4044,-75.6649,United States,USA,389022.0
Samut Prakan,13.6069,100.6115,Thailand,THA,388920.0
Grenoble,45.1804,5.72,France,FRA,388574.0
Nampula,-15.136,39.293,Mozambique,MOZ,388526.0
Nizamabad,18.6704,78.1,India,IND,388505.0
Granada,37.165,-3.585,Spain,ESP,388290.0
Brno,49.2004,16.61,Czechia,CZE,388277.0
Coventry,52.4204,-1.5,United Kingdom,GBR,388271.0
Alajuela,10.02,-84.23,Costa Rica,CRI,387743.0
Iloilo,10.705,122.545,Philippines,PHL,387681.0
Campos,-21.75,-41.32,Brazil,BRA,387417.0
Resistencia,-27.46,-58.99,Argentina,ARG,387158.0
Baicheng,45.62,122.82,China,CHN,386861.0
Qarshi,38.8704,65.8,Uzbekistan,UZB,386361.0
Misratah,32.38,15.1,Libya,LBY,386120.0
Ha'il,27.5236,41.7001,Saudi Arabia,SAU,385257.0
Boise,43.6007,-116.2312,United States,USA,385218.0
Bejaia,36.7604,5.07,Algeria,DZA,384937.0
Southampton,50.9,-1.4,United Kingdom,GBR,384417.0
Celaya,20.53,-100.8,Mexico,MEX,383697.0
Pasto,1.2136,-77.2811,Colombia,COL,382236.0
Modesto,37.6374,-121.0028,United States,USA,381398.0
Caxias do Sul,-29.18,-51.17,Brazil,BRA,381270.0
Nizhniy Tagil,57.92,59.975,Russia,RUS,381116.0
Xichang,27.88,102.3,China,CHN,379993.0
Dezhou,37.4504,116.3,China,CHN,379555.0
Vigo,42.22,-8.73,Spain,ESP,378952.0
Las Palmas de Gran Canaria,28.1,-15.43,Spain,ESP,378495.0
Parbhani,19.2704,76.76,India,IND,378326.0
Karlsruhe,49.0,8.4,Germany,DEU,377487.0
Zhoukou,33.6304,114.63,China,CHN,377061.0
Makiyivka,48.0297,37.9746,Ukraine,UKR,376610.0
Putian,25.4303,119.02,China,CHN,376558.0
Kahramanmaras,37.61,36.945,Turkey,TUR,376045.0
Manizales,5.06,-75.52,Colombia,COL,375848.0
Palma,39.5743,2.6542,Spain,ESP,375773.0
Manukau City,-37.0,174.885,New Zealand,NZL,375600.0
Shillong,25.5705,91.88,India,IND,375527.0
Khorramabad,33.4804,48.35,Iran,IRN,375198.0
Villavicencio,4.1533,-73.635,Colombia,COL,374763.0
Sao Jose do Rio Preto,-20.7996,-49.39,Brazil,BRA,374699.0
Kaunas,54.9504,23.88,Lithuania,LTU,374643.0
Latur,18.4004,76.57,India,IND,374394.0
Kissimmee,28.3042,-81.4164,United States,USA,374231.0
Youngstown,41.0993,-80.6463,United States,USA,373728.0
Shache,38.4261,77.25,China,CHN,373492.0
Seremban,2.7105,101.94,Malaysia,MYS,372917.0
Denizli,37.7704,29.08,Turkey,TUR,372344.0
Van,38.4954,43.4,Turkey,TUR,371713.0
A Coruna,43.33,-8.42,Spain,ESP,370610.0
Madan,30.3307,48.2797,Iran,IRN,370180.0
Quzhou,28.9704,118.87,China,CHN,370000.0
Rajapalaiyam,9.4204,77.58,India,IND,369991.0
Reading,51.47,-0.98,United Kingdom,GBR,369804.0
Najran,17.5065,44.1316,Saudi Arabia,SAU,369609.0
Mahilyow,53.8985,30.3247,Belarus,BLR,369200.0
Al Qatif,26.5196,50.0115,Saudi Arabia,SAU,368892.0
Mazatlan,23.2211,-106.42,Mexico,MEX,368204.0
Longyan,25.1804,117.03,China,CHN,367896.0
Aurora,39.7084,-104.7274,United States,USA,366623.0
Bydgoszcz,53.1204,18.01,Poland,POL,366452.0
Kuantan,3.83,103.32,Malaysia,MYS,366229.0
Gorontalo,0.55,123.07,Indonesia,IDN,365497.0
Nakuru,-0.28,36.07,Kenya,KEN,364727.0
Vladikavkaz,43.0504,44.67,Russia,RUS,364630.0
Larkana,27.5618,68.2068,Pakistan,PAK,364033.0
Christchurch,-43.535,172.63,New Zealand,NZL,363200.0
Stavropol',45.05,41.98,Russia,RUS,363064.0
Sanya,18.2591,109.504,China,CHN,362689.0
Bhagalpur,25.23,86.98,India,IND,361548.0
Shekhupura,31.72,73.99,Pakistan,PAK,361303.0
Cusco,-13.525,-71.9722,Peru,PER,361182.0
Tamale,9.4004,-0.84,Ghana,GHA,360579.0
Ulan-Ude,51.825,107.625,Russia,RUS,360278.0
Bobo-Dioulasso,11.18,-4.29,Burkina Faso,BFA,360106.0
Lublin,51.2504,22.5727,Poland,POL,360044.0
Halifax,44.65,-63.6,Canada,CAN,359111.0
Augsburg,48.35,10.9,Germany,DEU,358989.0
Sungai Petani,5.6497,100.4793,Malaysia,MYS,358499.0
Ad Diwaniyah,31.9889,44.924,Iraq,IRQ,358408.0
Taraz,42.9,71.365,Kazakhstan,KAZ,358153.0
Toulon,43.1342,5.9188,France,FRA,357693.0
Zanjan,36.67,48.5,Iran,IRN,357471.0
Donostia,43.3204,-1.98,Spain,ESP,357468.0
Iwaki,37.0553,140.89,Japan,JPN,357309.0
Encarnacion,-27.3472,-55.8739,Paraguay,PRY,357119.0
Posadas,-27.3578,-55.8851,Argentina,ARG,357119.0
Fuyu,45.1804,124.82,China,CHN,356905.0
Ca Mau,9.1774,105.15,Vietnam,VNM,356636.0
Asahikawa,43.755,142.38,Japan,JPN,356612.0
Mirpur Khas,25.5318,69.0118,Pakistan,PAK,356435.0
Arkhangel'sk,64.575,40.545,Russia,RUS,356051.0
Wafangdian,39.6259,121.996,China,CHN,355844.0
Ambon,-3.7167,128.2,Indonesia,IDN,355596.0
Orizaba,18.85,-97.13,Mexico,MEX,355333.0
Hongzhai,35.0476,104.6394,China,CHN,355037.0
Santiago del Estero,-27.7833,-64.2667,Argentina,ARG,354692.0
Mito,36.3704,140.48,Japan,JPN,353892.0
Safi,32.32,-9.24,Morocco,MAR,353476.0
Eldoret,0.52,35.27,Kenya,KEN,353381.0
Rahimyar Khan,28.4202,70.2952,Pakistan,PAK,353203.0
Neiva,2.931,-75.3302,Colombia,COL,352855.0
Anaheim,33.839,-117.8573,United States,USA,352497.0
Vinnytsya,49.2254,28.4816,Ukraine,UKR,352115.0
Hualien,23.9837,121.6,Taiwan,TWN,350468.0
Kuala Terengganu,5.3304,103.12,Malaysia,MYS,350210.0
Long Xuyen,10.3804,105.42,Vietnam,VNM,350000.0
Viet Tri,21.3304,105.43,Vietnam,VNM,350000.0
Qo`qon,40.5404,70.94,Uzbekistan,UZB,350000.0
Yingmen,39.83,97.73,China,CHN,350000.0
Haarlem,52.3804,4.63,Netherlands,NLD,349957.0
Buon Ma Thuot,12.667,108.05,Vietnam,VNM,349945.0
Chimbote,-9.07,-78.57,Peru,PER,349846.0
Muzaffarnagar,29.485,77.695,India,IND,349706.0
Nuevo Laredo,27.5,-99.55,Mexico,MEX,349550.0
Lancaster,34.6934,-118.1753,United States,USA,349218.0
Sanandaj,35.3,47.02,Iran,IRN,349176.0
Linz,48.3192,14.2888,Austria,AUT,349161.0
Camaguey,21.3808,-77.9169,Cuba,CUB,347562.0
Verona,45.4404,10.99,Italy,ITA,347459.0
Victorville,34.5277,-117.3536,United States,USA,346948.0
London,42.97,-81.25,Canada,CAN,346765.0
Merida,8.4,-71.13,Venezuela,VEN,345489.0
Charleroi,50.4204,4.45,Belgium,BEL,345367.0
Belgorod,50.63,36.5999,Russia,RUS,345289.0
Kusti,13.17,32.66,Sudan,SDN,345068.0
Al `Amarah,31.8416,47.1512,Iraq,IRQ,345007.0
Maebashi,36.3927,139.0727,Japan,JPN,344871.0
Pensacola,30.4427,-87.1886,United States,USA,344400.0
Kurgan,55.46,65.345,Russia,RUS,343129.0
Kohat,33.6027,71.4327,Pakistan,PAK,343027.0
Vitsyebsk,55.1887,30.1853,Belarus,BLR,342700.0
Piracicaba,-22.71,-47.64,Brazil,BRA,342209.0
Yeosu,34.7368,127.7458,"Korea, South",KOR,341994.0
Fayetteville,36.0713,-94.166,United States,USA,341890.0
San Juan,18.4037,-66.0636,Puerto Rico,PRI,341657.0
Corpus Christi,27.7261,-97.3755,United States,USA,341435.0
Jhang City,31.2804,72.325,Pakistan,PAK,341210.0
Pematangsiantar,2.9614,99.0615,Indonesia,IDN,341200.0
Arusha,-3.36,36.67,Tanzania,TZA,341136.0
Corrientes,-27.49,-58.81,Argentina,ARG,340823.0
Tamuramachi-moriyama,37.41,140.38,Japan,JPN,340560.0
Plovdiv,42.154,24.754,Bulgaria,BGR,340494.0
Chitungwiza,-18.0,31.1,Zimbabwe,ZWE,340360.0
Aksu,41.15,80.25,China,CHN,340020.0
Yucheng,29.9804,103.08,China,CHN,340000.0
Tieling,42.3004,123.82,China,CHN,340000.0
Irapuato,20.67,-101.5,Mexico,MEX,339554.0
Kaluga,54.5204,36.27,Russia,RUS,338978.0
East London,-32.97,27.87,South Africa,ZAF,338627.0
Jackson,32.3163,-90.2124,United States,USA,338185.0
Kaesong,37.964,126.5644,"Korea, North",PRK,338155.0
Ciudad Bolivar,8.1,-63.6,Venezuela,VEN,338000.0
Kawagoe,35.9177,139.4911,Japan,JPN,337931.0
Jitpur,27.6666,85.3333,Nepal,NPL,337785.0
Phan Thiet,10.9337,108.1001,Vietnam,VNM,336846.0
Alor Setar,6.1133,100.3729,Malaysia,MYS,336475.0
Santa Cruz de Tenerife,28.47,-16.25,Spain,ESP,336061.0
Gijon,43.53,-5.67,Spain,ESP,335972.0
Greensboro,36.0956,-79.8268,United States,USA,335588.0
Kochi,33.5624,133.5375,Japan,JPN,335570.0
Flint,43.0235,-83.6922,United States,USA,335354.0
Islip,40.7384,-73.1887,United States,USA,335302.0
Bauru,-22.33,-49.08,Brazil,BRA,335024.0
Nakhon Ratchasima,15.0,102.1,Thailand,THA,334984.0
Orel,52.97,36.07,Russia,RUS,334552.0
Takamatsu,34.3447,134.0448,Japan,JPN,334223.0
Santa Ana,33.7366,-117.8819,United States,USA,334136.0
Muzaffarpur,26.1204,85.3799,India,IND,333200.0
Beni,0.4904,29.45,Congo (Kinshasa),COD,332903.0
Toyama,36.7,137.23,Japan,JPN,332812.0
Hangu,39.232,117.777,China,CHN,332793.0
Wad Medani,14.4,33.52,Sudan,SDN,332714.0
Montes Claros,-16.72,-43.86,Brazil,BRA,332379.0
Bielefeld,52.03,8.53,Germany,DEU,331906.0
Heyuan,23.7304,114.68,China,CHN,330961.0
Mathura,27.5,77.67,India,IND,330511.0
Mymensingh,24.7504,90.38,Bangladesh,BGD,330126.0
Baishan,41.9,126.43,China,CHN,330000.0
Patiala,30.3204,76.385,India,IND,329224.0
Wonsan,39.1605,127.4308,"Korea, North",PRK,329207.0
Pavlodar,52.3,76.95,Kazakhstan,KAZ,329002.0
Fort Wayne,41.0885,-85.1436,United States,USA,328564.0
Maringa,-23.4095,-51.93,Brazil,BRA,328335.0
Saugor,23.8504,78.75,India,IND,328240.0
Sochi,43.59,39.73,Russia,RUS,327608.0
Montpellier,43.6104,3.87,France,FRA,327254.0
Itajai,-26.8996,-48.68,Brazil,BRA,327126.0
Sousse,35.83,10.625,Tunisia,TUN,327004.0
Ann Arbor,42.2755,-83.7312,United States,USA,326288.0
Iasi,47.1683,27.5749,Romania,ROU,325914.0
Brahmapur,19.32,84.8,India,IND,324726.0
Birjand,32.88,59.2199,Iran,IRN,324703.0
Fayetteville,35.0846,-78.9776,United States,USA,324700.0
Yoshkar-Ola,56.6354,47.8749,Russia,RUS,324406.0
Miyazaki,31.9182,131.4184,Japan,JPN,324384.0
Volzhskiy,48.7948,44.7744,Russia,RUS,323293.0
Chenzhou,25.8004,113.0301,China,CHN,322997.0
Valladolid,41.65,-4.75,Spain,ESP,322304.0
Santa Rosa,38.4458,-122.7067,United States,USA,321908.0
Al Kut,32.4907,45.8304,Iraq,IRQ,321521.0
Cordoba,37.88,-4.77,Spain,ESP,321376.0
Smolensk,54.7827,32.0473,Russia,RUS,320991.0
Lansing,42.7142,-84.5601,United States,USA,320928.0
Ciudad del Este,-25.5167,-54.6161,Paraguay,PRY,320872.0
Pelotas,-31.75,-52.33,Brazil,BRA,320674.0
Podol'sk,55.3804,37.5299,Russia,RUS,320635.0
Kherson,46.6325,32.6007,Ukraine,UKR,320477.0
Shahjanpur,27.8804,79.905,India,IND,320434.0
Itu,-23.26,-47.3,Brazil,BRA,320170.0
Legazpi City,13.17,123.75,Philippines,PHL,320081.0
Akita,39.71,140.09,Japan,JPN,320069.0
Maroua,10.5956,14.3247,Cameroon,CMR,319941.0
Anapolis,-16.3196,-48.96,Brazil,BRA,319587.0
Pachuca,20.1704,-98.73,Mexico,MEX,319581.0
Bukhara,39.78,64.43,Uzbekistan,UZB,319476.0
Murmansk,68.97,33.1,Russia,RUS,319263.0
Windsor,42.3333,-83.0333,Canada,CAN,319246.0
Holguin,20.8872,-76.2631,Cuba,CUB,319102.0
Oskemen,49.99,82.6149,Kazakhstan,KAZ,319067.0
Tepic,21.5054,-104.88,Mexico,MEX,318781.0
Vladimir,56.13,40.4099,Russia,RUS,318648.0
Mobile,30.6782,-88.1163,United States,USA,318084.0
Hat Yai,6.9964,100.4714,Thailand,THA,317954.0
Poltava,49.574,34.5703,Ukraine,UKR,317847.0
Cumana,10.45,-64.18,Venezuela,VEN,317603.0
Hrodna,53.6779,23.8341,Belarus,BLR,317365.0
Rohtak,28.9,76.58,India,IND,317245.0
Al Fayyum,29.31,30.84,Egypt,EGY,316772.0
Cluj-Napoca,46.7884,23.5984,Romania,ROU,316748.0
Bauchi,10.3104,9.84,Nigeria,NGA,316149.0
Lexington,38.0423,-84.4587,United States,USA,315939.0
Alicante,38.3512,-0.4836,Spain,ESP,315863.0
Dezful,32.3804,48.47,Iran,IRN,315482.0
Maiquetia,10.6004,-66.97,Venezuela,VEN,315442.0
Armenia,4.5343,-75.6811,Colombia,COL,315328.0
Timisoara,45.7588,21.2234,Romania,ROU,315053.0
Pescara,42.4554,14.2187,Italy,ITA,314789.0
Gdynia,54.5204,18.53,Poland,POL,314664.0
Angeles City,15.1451,120.5451,Philippines,PHL,314493.0
Ningde,26.6804,119.5301,China,CHN,314077.0
Aswan,24.0875,32.8989,Egypt,EGY,313442.0
Varna,43.2156,27.8953,Bulgaria,BGR,312770.0
Koblenz,50.3505,7.6,Germany,DEU,312633.0
Cherepovets,59.1404,37.91,Russia,RUS,311850.0
Qurghonteppa,37.8373,68.7713,Tajikistan,TJK,311574.0
Semey,50.435,80.275,Kazakhstan,KAZ,311353.0
Galati,45.4559,28.0459,Romania,ROU,311156.0
Brasov,45.6475,25.6072,Romania,ROU,311044.0
Sambalpur,21.4704,83.9701,India,IND,310852.0
Pucallpa,-8.3689,-74.535,Peru,PER,310750.0
Antofagasta,-23.65,-70.4,Chile,CHL,309832.0
Huntsville,34.6988,-86.6412,United States,USA,309716.0
Santa Clarita,34.4155,-118.4992,United States,USA,309378.0
Asheville,35.5704,-82.5537,United States,USA,309250.0
Sapele,5.8904,5.68,Nigeria,NGA,309162.0
Dayr az Zawr,35.3304,40.13,Syria,SYR,309141.0
Chita,52.055,113.465,Russia,RUS,308500.0
Valledupar,10.48,-73.25,Colombia,COL,308237.0
Vitoria da Conquista,-14.85,-40.84,Brazil,BRA,308204.0
Antsirabe,-19.85,47.0333,Madagascar,MDG,307921.0
Nal'chik,43.4981,43.6179,Russia,RUS,307866.0
Chernihiv,51.5049,31.3015,Ukraine,UKR,307684.0
Ratlam,23.3504,75.03,India,IND,307229.0
St. Paul,44.9477,-93.104,United States,USA,306621.0
Ksar El Kebir,35.0204,-5.91,Morocco,MAR,306600.0
Tawau,4.271,117.896,Malaysia,MYS,306462.0
Firozabad,27.15,78.3949,India,IND,306409.0
Porto Velho,-8.75,-63.9,Brazil,BRA,306180.0
San Salvador de Jujuy,-24.1833,-65.3,Argentina,ARG,305891.0
Hatay,36.2304,36.12,Turkey,TUR,305564.0
Franca,-20.53,-47.39,Brazil,BRA,305041.0
Rajahmundry,17.0303,81.79,India,IND,304804.0
Olongapo,14.8296,120.2828,Philippines,PHL,304388.0
Craiova,44.3263,23.8259,Romania,ROU,304142.0
Kawm Umbu,24.47,32.95,Egypt,EGY,303962.0
Los Teques,10.42,-67.02,Venezuela,VEN,303470.0
Constanta,44.2027,28.61,Romania,ROU,303399.0
Saransk,54.1704,45.18,Russia,RUS,303394.0
Wenlan,23.3619,103.4061,China,CHN,303341.0
Ganca,40.685,46.35,Azerbaijan,AZE,303268.0
Fort Collins,40.5475,-105.0651,United States,USA,303184.0
Hakodate,41.795,140.74,Japan,JPN,302984.0
Antioch,37.9789,-121.7957,United States,USA,302885.0
Chemnitz,50.83,12.92,Germany,DEU,302643.0
Henderson,36.0146,-115.0362,United States,USA,302539.0
Kingston upon Hull,53.7504,-0.33,United Kingdom,GBR,302296.0
Batman,37.8904,41.14,Turkey,TUR,302074.0
Qina,26.1505,32.72,Egypt,EGY,302027.0
Barddhaman,23.2504,87.865,India,IND,301725.0
Jinja,0.4404,33.1999,Uganda,UGA,301619.0
Gujrat,32.58,74.08,Pakistan,PAK,301506.0
Tambov,52.73,41.43,Russia,RUS,301482.0
Kumul,42.827,93.515,China,CHN,300848.0
Brest,52.1,23.7,Belarus,BLR,300715.0
Mardan,34.2,72.04,Pakistan,PAK,300424.0
Bidar,17.9229,77.5175,India,IND,300136.0
Rach Gia,10.0154,105.0914,Vietnam,VNM,300000.0
Soc Trang,9.6037,105.98,Vietnam,VNM,300000.0
Qyzylorda,44.8,65.465,Kazakhstan,KAZ,300000.0
Curepipe,-20.3162,57.5166,Mauritius,MUS,299975.0
Kanggye,40.9732,126.6032,"Korea, North",PRK,299514.0
Ba`qubah,33.7476,44.6573,Iraq,IRQ,299479.0
Damietta,31.4204,31.82,Egypt,EGY,299459.0
Oyster Bay,40.7845,-73.5139,United States,USA,298655.0
Jember,-8.1727,113.6873,Indonesia,IDN,298585.0
Al Mubarraz,25.4291,49.5659,Saudi Arabia,SAU,298562.0
Al Kharj,24.1556,47.312,Saudi Arabia,SAU,298428.0
Aomori,40.825,140.71,Japan,JPN,298394.0
Chernivtsi,48.3053,25.9216,Ukraine,UKR,298251.0
Iskenderun,36.5804,36.17,Turkey,TUR,297943.0
Cherkasy,49.4347,32.0709,Ukraine,UKR,297568.0
Trenton,40.2236,-74.7641,United States,USA,296869.0
Rampur,28.8154,79.025,India,IND,296418.0
Morioka,39.72,141.13,Japan,JPN,295172.0
Ar Ramadi,33.42,43.3,Iraq,IRQ,295121.0
Vologda,59.21,39.92,Russia,RUS,294889.0
Sumy,50.9243,34.7809,Ukraine,UKR,294456.0
Abertawe,51.63,-3.95,United Kingdom,GBR,294339.0
Fukushima,37.74,140.47,Japan,JPN,294237.0
Blumenau,-26.92,-49.09,Brazil,BRA,293949.0
Thies,14.8104,-16.93,Senegal,SEN,293001.0
Kakinada,16.9675,82.2375,India,IND,292923.0
Panipat,29.4004,76.97,India,IND,292808.0
Makurdi,7.73,8.53,Nigeria,NGA,292645.0
Ponta Grossa,-25.09,-50.16,Brazil,BRA,292177.0
Minna,9.62,6.55,Nigeria,NGA,291905.0
Bialystok,53.1504,23.17,Poland,POL,291855.0
Mbeya,-8.89,33.43,Tanzania,TZA,291649.0
Cagliari,39.2224,9.104,Italy,ITA,291511.0
Lakeland,28.0557,-81.9545,United States,USA,291281.0
Khammam,17.2804,80.1601,India,IND,290839.0
Bafoussam,5.4904,10.4099,Cameroon,CMR,290768.0
Kasur,31.1254,74.455,Pakistan,PAK,290643.0
Hong'an,47.21,123.61,China,CHN,289999.0
Kassel,51.3,9.5,Germany,DEU,289924.0
Limeira,-22.5495,-47.4,Brazil,BRA,289665.0
Victoria,48.4333,-123.35,Canada,CAN,289625.0
Bhuj,23.2504,69.81,India,IND,289429.0
Huizhou,23.08,114.4,China,CHN,289201.0
Karimnagar,18.4604,79.11,India,IND,288251.0
Sinuiju,40.0859,124.4213,"Korea, North",PRK,288112.0
Talcahuano,-36.7167,-73.1167,Chile,CHL,288074.0
Ciudad Obregon,27.4666,-109.925,Mexico,MEX,288002.0
Shreveport,32.4659,-93.7959,United States,USA,287432.0
Davenport,41.5563,-90.6052,United States,USA,287413.0
Coatzacoalcos,18.1204,-94.42,Mexico,MEX,287285.0
Springfield,37.1943,-93.2915,United States,USA,287222.0
Tirupati,13.6504,79.42,India,IND,287035.0
Cuenca,-2.9,-79.0,Ecuador,ECU,286878.0
Butembo,0.13,29.28,Congo (Kinshasa),COD,286403.0
Sekondi,4.9433,-1.704,Ghana,GHA,286248.0
Plano,33.0502,-96.7487,United States,USA,286143.0
Petropolis,-22.5095,-43.2,Brazil,BRA,286071.0
Hospet,15.2804,76.375,India,IND,286007.0
Rangpur,25.75,89.28,Bangladesh,BGD,285564.0
Rockford,42.2598,-89.0641,United States,USA,285562.0
Newark,40.7245,-74.1725,United States,USA,285154.0
Lincoln,40.8088,-96.6796,United States,USA,285118.0
Az Zaqaziq,30.5833,31.5167,Egypt,EGY,285097.0
Mandya,12.5704,76.92,India,IND,285034.0
Round Lake Beach,42.379,-88.0811,United States,USA,284607.0
Bago,17.32,96.515,Burma,MMR,284318.0
Barinas,8.6,-70.25,Venezuela,VEN,284289.0
Iksan,35.941,126.9454,"Korea, South",KOR,283501.0
Alwar,27.5454,76.6049,India,IND,283228.0
Cadiz,10.9587,123.3086,Philippines,PHL,283157.0
Cadiz,36.535,-6.225,Spain,ESP,283157.0
Aizawl,23.7104,92.72,India,IND,283021.0
Kupang,-10.1787,123.583,Indonesia,IDN,282396.0
Tongchuanshi,35.08,109.03,China,CHN,282258.0
Zhytomyr,50.2456,28.6622,Ukraine,UKR,282192.0
Jining,41.03,113.08,China,CHN,281716.0
Bahia Blanca,-38.74,-62.265,Argentina,ARG,281536.0
Cap-Haitien,19.7592,-72.2125,Haiti,HTI,281487.0
Ambato,-1.2696,-78.62,Ecuador,ECU,281425.0
South Bend,41.6771,-86.2692,United States,USA,281100.0
Gorgan,36.8303,54.48,Iran,IRN,281023.0
Batna,35.57,6.17,Algeria,DZA,280798.0
Tacna,-18.0,-70.25,Peru,PER,280098.0
Savannah,32.0281,-81.1785,United States,USA,280082.0
Tacloban,11.2504,125.0,Philippines,PHL,280006.0
Xinzhou,38.4104,112.72,China,CHN,279607.0
Cotabato,7.2169,124.2484,Philippines,PHL,279519.0
Rize,41.0208,40.5219,Turkey,TUR,279450.0
Ica,-14.068,-75.7255,Peru,PER,279420.0
Sumqayit,40.58,49.63,Azerbaijan,AZE,279159.0
Taganrog,47.23,38.92,Russia,RUS,279056.0
Kaolack,14.15,-16.1,Senegal,SEN,277812.0
Kostroma,57.77,40.94,Russia,RUS,277656.0
Irvine,33.6772,-117.7738,United States,USA,277453.0
Owo,7.2004,5.59,Nigeria,NGA,276574.0
Sukabumi,-6.9096,106.9,Indonesia,IDN,276414.0
Komsomol'sk-na-Amure,50.555,137.02,Russia,RUS,275908.0
Prokop'yevsk,53.9,86.71,Russia,RUS,275615.0
Monteria,8.7575,-75.89,Colombia,COL,275198.0
Mbandaka,0.04,18.26,Congo (Kinshasa),COD,274996.0
Ciudad Victoria,23.72,-99.13,Mexico,MEX,274900.0
Setif,36.18,5.4,Algeria,DZA,274744.0
Pamplona,42.82,-1.65,Spain,ESP,274545.0
Jinshi,29.6321,111.8517,China,CHN,274000.0
Ubon Ratchathani,15.25,104.83,Thailand,THA,273893.0
Crato,-7.2296,-39.42,Brazil,BRA,273883.0
Crato,-7.4639,-63.04,Brazil,BRA,273883.0
Guantanamo,20.1453,-75.2061,Cuba,CUB,272801.0
Blackpool,53.8304,-3.05,United Kingdom,GBR,272792.0
Majene,-3.5336,118.966,Indonesia,IDN,272377.0
Yamagata,38.2705,140.32,Japan,JPN,272209.0
Pekalongan,-6.8796,109.67,Indonesia,IDN,272000.0
Elazig,38.68,39.23,Turkey,TUR,271492.0
Sar Pol,36.5504,53.1,Iran,IRN,271467.0
Canton,40.8076,-81.3678,United States,USA,271184.0
Tasikmalaya,-7.3254,108.2147,Indonesia,IDN,271143.0
Bijapur,16.8354,75.71,India,IND,271064.0
Venice,45.4387,12.335,Italy,ITA,270816.0
Jersey City,40.7161,-74.0683,United States,USA,270753.0
Chula Vista,32.6281,-117.0145,United States,USA,270471.0
Gombe,10.2904,11.17,Nigeria,NGA,270366.0
Munster,51.9704,7.62,Germany,DEU,270184.0
Thohoyandou,-22.95,30.48,South Africa,ZAF,269707.0
Kiel,54.3304,10.13,Germany,DEU,269427.0
Malmo,55.5833,13.0333,Sweden,SWE,269349.0
Nancy,48.6837,6.2,France,FRA,268976.0
Mokpo,34.8068,126.3958,"Korea, South",KOR,268402.0
Tebingtinggi,3.3304,99.13,Indonesia,IDN,268043.0
Yanbu`,24.0943,38.0493,Saudi Arabia,SAU,267590.0
Eugene,44.0563,-123.1173,United States,USA,267568.0
Tshikapa,-6.41,20.77,Congo (Kinshasa),COD,267462.0
Reading,40.34,-75.9267,United States,USA,267300.0
Sterlitamak,53.63,55.96,Russia,RUS,267231.0
Padangsidempuan,1.3887,99.2734,Indonesia,IDN,266882.0
Myeik,12.4541,98.6115,Burma,MMR,266720.0
Temuco,-38.73,-72.58,Chile,CHL,265901.0
Lafayette,30.2084,-92.0323,United States,USA,265746.0
Lausanne,46.5304,6.65,Switzerland,CHE,265702.0
Saint-Etienne,45.4304,4.38,France,FRA,265684.0
Petrozavodsk,61.85,34.28,Russia,RUS,265025.0
Imphal,24.8,93.95,India,IND,264986.0
Umuahia,5.532,7.486,Nigeria,NGA,264662.0
Uruapan,19.4204,-102.07,Mexico,MEX,264531.0
Sivas,39.7454,37.035,Turkey,TUR,264022.0
Tobruk,32.08,23.96,Libya,LBY,263527.0
St. Petersburg,27.793,-82.6652,United States,USA,263255.0
Graz,47.0778,15.41,Austria,AUT,263234.0
Kindu,-2.9639,25.91,Congo (Kinshasa),COD,262914.0
Lubbock,33.5642,-101.8871,United States,USA,262505.0
Aqtobe,50.28,57.17,Kazakhstan,KAZ,262457.0
Parana,-31.7333,-60.5333,Argentina,ARG,262295.0
Az Zubayr,30.3892,47.708,Iraq,IRQ,262219.0
Peoria,40.7521,-89.6155,United States,USA,262010.0
Hotan,37.0997,79.9269,China,CHN,261730.0
Cabo Frio,-22.89,-42.04,Brazil,BRA,261721.0
Balikesir,39.6504,27.89,Turkey,TUR,261516.0
Zhuanghe,39.6823,122.9619,China,CHN,261510.0
Sincelejo,9.2904,-75.38,Colombia,COL,261187.0
Petrolina,-9.38,-40.51,Brazil,BRA,260985.0
Acarigua,9.5804,-69.2,Venezuela,VEN,260921.0
Wollongong,-34.4154,150.89,Australia,AUS,260914.0
Uberaba,-19.78,-47.95,Brazil,BRA,260843.0
Myrtle Beach,33.7096,-78.8842,United States,USA,260487.0
Laredo,27.5617,-99.4874,United States,USA,260244.0
Sakarya,40.8,30.415,Turkey,TUR,260109.0
Konibodom,40.2922,70.4272,Tajikistan,TJK,259876.0
Salem,44.9232,-123.0245,United States,USA,259816.0
Kunduz,36.728,68.8725,Afghanistan,AFG,259809.0
Tampere,61.5,23.75,Finland,FIN,259279.0
Columbus,32.51,-84.8771,United States,USA,259160.0
Popayan,2.42,-76.61,Colombia,COL,258750.0
Nonthaburi,13.8337,100.4833,Thailand,THA,258550.0
Al Mukalla,14.5412,49.1259,Yemen,YEM,258132.0
Rio Branco,-9.9666,-67.8,Brazil,BRA,257642.0
Etawah,26.7855,79.015,India,IND,257448.0
Mendefera,14.886,38.8163,Eritrea,ERI,257390.0
Cascavel,-24.9596,-53.46,Brazil,BRA,257172.0
Ondo,7.0904,4.84,Nigeria,NGA,257005.0
Chimoio,-19.12,33.47,Mozambique,MOZ,256936.0
Ensenada,31.87,-116.62,Mexico,MEX,256565.0
Dzerzhinsk,56.2504,43.46,Russia,RUS,256537.0
Ap Da Loi,11.9304,108.42,Vietnam,VNM,256019.0
Montgomery,32.3473,-86.2666,United States,USA,255908.0
Damaturu,11.749,11.966,Nigeria,NGA,255895.0
Raichur,16.2104,77.355,India,IND,255240.0
Daloa,6.89,-6.45,Côte D’Ivoire,CIV,255168.0
Rivne,50.6166,26.2528,Ukraine,UKR,255106.0
Turpan,42.9354,89.165,China,CHN,254900.0
Freiburg im Breisgau,48.0004,7.8699,Germany,DEU,254889.0
Poza Rica de Hidalgo,20.5504,-97.47,Mexico,MEX,254481.0
Chuxiong,25.0364,101.5456,China,CHN,254370.0
Cirebon,-6.7333,108.5666,Indonesia,IDN,254298.0
Fort-de-France,14.6104,-61.08,Martinique,MTQ,253995.0
Pathankot,32.2703,75.72,India,IND,253987.0
Chandler,33.2827,-111.8517,United States,USA,253458.0
Anchorage,61.1508,-149.1091,United States,USA,253421.0
Tallahassee,30.4551,-84.2527,United States,USA,253030.0
Chirala,15.8604,80.34,India,IND,253000.0
Buenaventura,3.8724,-77.0505,Colombia,COL,252805.0
El Fasher,13.63,25.35,Sudan,SDN,252609.0
Dire Dawa,9.59,41.86,Ethiopia,ETH,252279.0
Suihua,46.6304,126.98,China,CHN,252245.0
Messina,38.2005,15.55,Italy,ITA,252026.0
Borujerd,33.92,48.8,Iran,IRN,251958.0
Linhai,28.85,121.12,China,CHN,251759.0
Khon Kaen,16.42,102.83,Thailand,THA,251056.0
Morogoro,-6.82,37.66,Tanzania,TZA,250902.0
Governador Valadares,-18.87,-41.97,Brazil,BRA,250878.0
Sonipat,29.0,77.02,India,IND,250521.0
Santa Clara,22.4,-79.9667,Cuba,CUB,250512.0
Iwo,7.63,4.18,Nigeria,NGA,250443.0
Concord,35.3932,-80.6363,United States,USA,250186.0
Zumpango,19.8104,-99.11,Mexico,MEX,250000.0
Laiyang,36.9684,120.7084,China,CHN,250000.0
Jaffna,9.675,80.005,Sri Lanka,LKA,250000.0
Arua,3.0204,30.9,Uganda,UGA,250000.0
Quang Ngai,15.1504,108.83,Vietnam,VNM,250000.0
Caserta,41.06,14.3374,Italy,ITA,250000.0
Como,45.81,9.08,Italy,ITA,250000.0
Nis,43.3304,21.9,Serbia,SRB,250000.0
Lucerne,47.0504,8.28,Switzerland,CHE,250000.0
Kashan,33.9804,51.58,Iran,IRN,250000.0
Scottsdale,33.6872,-111.8651,United States,USA,249950.0
Varzea Grande,-15.65,-56.14,Brazil,BRA,249752.0
Kropyvnyts'kyy,48.5041,32.2603,Ukraine,UKR,249454.0
Melun,48.5333,2.6666,France,FRA,249432.0
Mutare,-18.97,32.65,Zimbabwe,ZWE,249365.0
Santa Maria,-29.6833,-53.8,Brazil,BRA,249219.0
Hafar al Batin,28.4337,45.9601,Saudi Arabia,SAU,249194.0
Los Mochis,25.79,-109.0,Mexico,MEX,249047.0
Jalal-Abad,40.9429,73.0025,Kyrgyzstan,KGZ,248899.0
Vung Tau,10.3554,107.085,Vietnam,VNM,248767.0
Fukui,36.0704,136.22,Japan,JPN,248707.0
Singkawang,0.912,108.9655,Indonesia,IDN,248012.0
Miskolc,48.1004,20.78,Hungary,HUN,247757.0
Killeen,31.0755,-97.7297,United States,USA,247489.0
Plymouth,50.3854,-4.16,United Kingdom,GBR,247297.0
Udon Thani,17.4048,102.7893,Thailand,THA,247231.0
Kattaqo`rg`on,39.9007,66.2608,Uzbekistan,UZB,247113.0
Orsk,51.21,58.6273,Russia,RUS,246836.0
San Bernardo,-33.6,-70.7,Chile,CHL,246762.0
Glendale,33.5797,-112.2258,United States,USA,246709.0
Oruro,-17.98,-67.13,Bolivia,BOL,246501.0
Bratsk,56.157,101.615,Russia,RUS,246348.0
Wilmington,34.2101,-77.886,United States,USA,245910.0
Matadi,-5.8166,13.45,Congo (Kinshasa),COD,245862.0
Mirzapur,25.1454,82.57,India,IND,245817.0
Shinozaki,33.9654,130.9454,Japan,JPN,245786.0
Rzeszow,50.0705,22.0,Poland,POL,245686.0
Juliaca,-15.5,-70.14,Peru,PER,245675.0
Qinzhou,21.9504,108.62,China,CHN,245376.0
Winter Haven,28.0118,-81.7017,United States,USA,245237.0
Nizhnevartovsk,60.935,76.58,Russia,RUS,244937.0
Ternopil',49.536,25.5821,Ukraine,UKR,244768.0
Braunschweig,52.25,10.5,Germany,DEU,244715.0
Norfolk,36.8945,-76.259,United States,USA,244703.0
Hebi,35.9504,114.22,China,CHN,244662.0
Thu Dau Mot,10.9691,106.6527,Vietnam,VNM,244277.0
Kunsan,35.9818,126.716,"Korea, South",KOR,244080.0
Jessore,23.1704,89.2,Bangladesh,BGD,243987.0
Manisa,38.6304,27.44,Turkey,TUR,243971.0
Wonju,37.3551,127.9396,"Korea, South",KOR,243387.0
Nam Dinh,20.42,106.2,Vietnam,VNM,243186.0
Angarsk,52.56,103.92,Russia,RUS,243158.0
North Las Vegas,36.288,-115.0901,United States,USA,242975.0
Hapur,28.7437,77.7628,India,IND,242920.0
Gilbert,33.3103,-111.7463,United States,USA,242354.0
Le Havre,49.505,0.105,France,FRA,242124.0
Caruaru,-8.28,-35.98,Brazil,BRA,242094.0
Neuquen,-38.95,-68.06,Argentina,ARG,242092.0
Ulanhot,46.08,122.08,China,CHN,241894.0
Novorossiysk,44.73,37.7699,Russia,RUS,241856.0
Tehuacan,18.4504,-97.38,Mexico,MEX,241429.0
Atlantic City,39.3797,-74.4527,United States,USA,241363.0
Ivano-Frankivs'k,48.9348,24.7094,Ukraine,UKR,241239.0
Barnstable Town,41.6722,-70.3599,United States,USA,241132.0
Fuzhou,27.9703,116.36,China,CHN,241104.0
San Pablo,14.0696,121.3226,Philippines,PHL,240830.0
Chesapeake,36.6778,-76.3024,United States,USA,240397.0
Irving,32.8584,-96.9702,United States,USA,240373.0
Hialeah,25.8696,-80.3046,United States,USA,239673.0
Hachimancho,40.51,141.54,Japan,JPN,239046.0
Garland,32.91,-96.6305,United States,USA,238002.0
Furth,49.47,11.0,Germany,DEU,237844.0
As Sib,23.6802,58.1825,Oman,OMN,237816.0
Aarhus,56.1572,10.2107,Denmark,DNK,237551.0
Sato,33.1631,129.7177,Japan,JPN,237444.0
Al Jubayl,27.0046,49.646,Saudi Arabia,SAU,237274.0
Taiping,4.865,100.72,Malaysia,MYS,237095.0
Pathein,16.7704,94.75,Burma,MMR,237089.0
Tegal,-6.8696,109.12,Indonesia,IDN,237084.0
Yidu,30.3004,111.5,China,CHN,237042.0
Sylhet,24.9036,91.8736,Bangladesh,BGD,237000.0
Qostanay,53.2209,63.6283,Kazakhstan,KAZ,236901.0
Kosice,48.7304,21.25,Slovakia,SVK,236563.0
Monclova,26.9,-101.42,Mexico,MEX,236244.0
Tours,47.3804,0.6999,France,FRA,236096.0
Dera Ghazi Khan,30.0604,70.6351,Pakistan,PAK,236093.0
Springs,-26.2696,28.43,South Africa,ZAF,236083.0
Luton,51.8804,-0.42,United Kingdom,GBR,235958.0
Sahiwal,30.6717,73.1118,Pakistan,PAK,235695.0
Oviedo,43.3505,-5.83,Spain,ESP,235651.0
Yakutsk,62.035,129.735,Russia,RUS,235600.0
Lubeck,53.8704,10.67,Germany,DEU,235390.0
Jizzax,40.1004,67.83,Uzbekistan,UZB,235352.0
Palmas,-10.2377,-48.2878,Brazil,BRA,235315.0
Boa Vista,2.8161,-60.666,Brazil,BRA,235150.0
Kediri,-7.7896,112.0,Indonesia,IDN,235143.0
McKinney,33.2016,-96.6669,United States,USA,235134.0
Fremont,37.5265,-121.9852,United States,USA,234962.0
Kismaayo,-0.3566,42.5183,Somalia,SOM,234852.0
Ibb,13.9759,44.1709,Yemen,YEM,234837.0
Turkmenabat,39.11,63.58,Turkmenistan,TKM,234817.0
Punto Fijo,11.72,-70.21,Venezuela,VEN,234736.0
Porbandar,21.67,69.67,India,IND,234684.0
Visalia,36.3276,-119.3269,United States,USA,234573.0
Zacatecas,22.7704,-102.58,Mexico,MEX,234481.0
Santa Ana,13.9946,-89.5598,El Salvador,SLV,234478.0
Santa Ana de Yacuma,-13.76,-65.58,Bolivia,BOL,234478.0
Singaraja,-8.1152,115.0944,Indonesia,IDN,234468.0
Nizhnekamsk,55.6404,51.82,Russia,RUS,234297.0
York,39.9651,-76.7315,United States,USA,234245.0
Zabol,31.0215,61.4815,Iran,IRN,233968.0
Rancagua,-34.17,-70.74,Chile,CHL,233268.0
Clermont-Ferrand,45.78,3.08,France,FRA,233050.0
Kennewick,46.1979,-119.1732,United States,USA,232915.0
Kremenchuk,49.0835,33.4296,Ukraine,UKR,232742.0
Maradi,13.4916,7.0964,Niger,NER,232555.0
Ploiesti,44.9469,26.0365,Romania,ROU,232542.0
Nakhon Si Thammarat,8.4,99.97,Thailand,THA,232335.0
Hetauda,27.4167,85.0334,Nepal,NPL,232334.0
Evansville,37.9881,-87.5341,United States,USA,232285.0
Saidpur,25.8004,89.0,Bangladesh,BGD,232209.0
Paradise,36.0807,-115.1369,United States,USA,231858.0
Al Fallujah,33.3477,43.7773,Iraq,IRQ,231819.0
Xiulin,29.7004,112.4,China,CHN,231787.0
Ngaoundere,7.3204,13.58,Cameroon,CMR,231357.0
Debrecen,47.5305,21.63,Hungary,HUN,231286.0
Osnabruck,52.2804,8.05,Germany,DEU,231268.0
Nashua,42.7491,-71.491,United States,USA,231262.0
North Hempstead,40.7912,-73.6688,United States,USA,231085.0
Syktyvkar,61.66,50.82,Russia,RUS,230910.0
Zhangye,38.93,100.45,China,CHN,230728.0
Ilheus,-14.78,-39.05,Brazil,BRA,230622.0
Santarem,-2.4333,-54.7,Brazil,BRA,230428.0
Zinder,13.8,8.9833,Niger,NER,230358.0
Nukus,42.47,59.615,Uzbekistan,UZB,230006.0
Magdeburg,52.1304,11.62,Germany,DEU,229826.0
Tlemcen,34.8904,-1.32,Algeria,DZA,229777.0
Noginsk,55.8704,38.48,Russia,RUS,229731.0
Noginsk,64.4833,91.2333,Russia,RUS,229731.0
Arlington,38.8786,-77.1011,United States,USA,229534.0
Nawabshah,26.2454,68.4,Pakistan,PAK,229504.0
Bharatpur,27.2504,77.5,India,IND,229384.0
Uitenhage,-33.7596,25.39,South Africa,ZAF,228912.0
Beipiao,41.81,120.76,China,CHN,228515.0
Errachidia,31.9404,-4.45,Morocco,MAR,228489.0
Petropavl,54.88,69.22,Kazakhstan,KAZ,228238.0
Miri,4.3999,113.9845,Malaysia,MYS,228212.0
Brownsville,25.998,-97.4565,United States,USA,227883.0
Iquique,-20.25,-70.13,Chile,CHL,227499.0
Hyesan,41.3927,128.1927,"Korea, North",PRK,227461.0
Puducherry,11.935,79.83,India,IND,227411.0
Quillacollo,-17.4,-66.28,Bolivia,BOL,227052.0
Staryy Oskol,51.3004,37.84,Russia,RUS,226977.0
Liaocheng,36.4304,115.97,China,CHN,226930.0
Gusau,12.1704,6.66,Nigeria,NGA,226857.0
Tanjungpinang,0.9168,104.4714,Indonesia,IDN,226666.0
Chon Buri,13.4004,101.0,Thailand,THA,226618.0
Chuncheon,37.8747,127.7342,"Korea, South",KOR,226509.0
Monywa,22.105,95.15,Burma,MMR,226222.0
Sabzevar,36.22,57.63,Iran,IRN,226183.0
Groznyy,43.3187,45.6987,Russia,RUS,226100.0
Kolpino,59.73,30.65,Russia,RUS,225801.0
Sikasso,11.3204,-5.68,Mali,MLI,225753.0
Mubi,10.2703,13.27,Nigeria,NGA,225705.0
Novi Sad,45.2504,19.8499,Serbia,SRB,225457.0
Juazeiro do Norte,-7.21,-39.32,Brazil,BRA,225230.0
Nyanza,-2.3496,29.74,Rwanda,RWA,225209.0
Skikda,36.8804,6.9,Algeria,DZA,225181.0
Karnal,29.6804,76.97,India,IND,225049.0
Bac Lieu,9.2804,105.72,Vietnam,VNM,225000.0
Minamiozuma,36.2404,137.97,Japan,JPN,224926.0
Tanga,-5.07,39.09,Tanzania,TZA,224876.0
Cidade de Nacala,-14.5186,40.715,Mozambique,MOZ,224795.0
Vitoria-Gasteiz,42.85,-2.67,Spain,ESP,224578.0
Nagercoil,8.1804,77.43,India,IND,224329.0
Haeju,38.0394,125.7144,"Korea, North",PRK,224231.0
Adiyaman,37.7704,38.2799,Turkey,TUR,223744.0
Okara,30.8104,73.45,Pakistan,PAK,223648.0
Narayanganj,23.6204,90.5,Bangladesh,BGD,223622.0
Colima,19.23,-103.72,Mexico,MEX,223287.0
Appleton,44.2774,-88.3894,United States,USA,222222.0
Hancheng,35.4704,110.43,China,CHN,222135.0
`Ar`ar,30.99,41.0207,Saudi Arabia,SAU,222016.0
Itabuna,-14.7896,-39.28,Brazil,BRA,221938.0
Banja Luka,44.7804,17.18,Bosnia And Herzegovina,BIH,221738.0
Gueckedou,8.554,-10.151,Guinea,GIN,221715.0
Neyshabur,36.22,58.82,Iran,IRN,221700.0
Amol,36.4713,52.3633,Iran,IRN,221650.0
Tapachula,14.9,-92.27,Mexico,MEX,221521.0
Formosa,-26.1728,-58.1828,Argentina,ARG,221383.0
Gulfport,30.4271,-89.0703,United States,USA,221348.0
Shakhty,47.7204,40.27,Russia,RUS,221312.0
Blagoveshchensk,50.2666,127.5333,Russia,RUS,221296.0
Cordoba,18.9204,-96.92,Mexico,MEX,220563.0
Babruysk,53.1266,29.1928,Belarus,BLR,220517.0
Cabanatuan City,15.5021,120.9617,Philippines,PHL,220250.0
Polokwane,-23.89,29.45,South Africa,ZAF,220045.0
Lhasa,29.645,91.1,China,CHN,219599.0
Tanjore,10.7704,79.15,India,IND,219571.0
Gabes,33.9004,10.1,Tunisia,TUN,219517.0
Baghlan,36.1393,68.6993,Afghanistan,AFG,218748.0
Thousand Oaks,34.1914,-118.8755,United States,USA,218729.0
Velikiy Novgorod,58.5,31.33,Russia,RUS,218717.0
Wuhai,39.6647,106.8122,China,CHN,218427.0
Bertoua,4.5804,13.68,Cameroon,CMR,218111.0
Imperatriz,-5.52,-47.49,Brazil,BRA,218106.0
Potsdam,52.4004,13.07,Germany,DEU,218095.0
San Pedro de Macoris,18.4504,-69.3,Dominican Republic,DOM,217899.0
Mallawi,27.7304,30.84,Egypt,EGY,217365.0
Sibolga,1.75,98.8,Indonesia,IDN,217312.0
Orleans,47.9004,1.9,France,FRA,217301.0
Denov,38.2772,67.8872,Uzbekistan,UZB,217274.0
Avondale,33.3858,-112.3236,United States,USA,217192.0
San Bernardino,34.1417,-117.2945,United States,USA,216995.0
Gilgit,35.9171,74.3,Pakistan,PAK,216760.0
Rybinsk,58.0503,38.82,Russia,RUS,216724.0
Groningen,53.2204,6.58,Netherlands,NLD,216688.0
Bremerton,47.5436,-122.7121,United States,USA,216480.0
Roanoke,37.2785,-79.958,United States,USA,216177.0
Trieste,45.6504,13.8,Italy,ITA,216035.0
Kielce,50.8904,20.66,Poland,POL,215733.0
Mulhouse,47.7504,7.35,France,FRA,215454.0
Biysk,52.5341,85.18,Russia,RUS,215430.0
Hickory,35.7426,-81.323,United States,USA,215353.0
Owerri,5.493,7.026,Nigeria,NGA,215038.0
Zamora,19.9804,-102.28,Mexico,MEX,214947.0
Navoiy,40.1104,65.355,Uzbekistan,UZB,214828.0
Split,43.5204,16.47,Croatia,HRV,214741.0
Kalamazoo,42.2749,-85.5882,United States,USA,214083.0
Oradea,47.05,21.92,Romania,ROU,213830.0
Luts'k,50.7472,25.3334,Ukraine,UKR,213661.0
Portoviejo,-1.06,-80.46,Ecuador,ECU,213601.0
Bergen,60.391,5.3245,Norway,NOR,213585.0
Braila,45.292,27.969,Romania,ROU,213569.0
Tacoma,47.2431,-122.4531,United States,USA,213418.0
Nanping,26.6304,118.17,China,CHN,213054.0
Machala,-3.26,-79.96,Ecuador,ECU,213034.0
Limbe,4.0304,9.19,Cameroon,CMR,212474.0
Marilia,-22.21,-49.95,Brazil,BRA,212218.0
Fontana,34.0968,-117.4599,United States,USA,211815.0
Kirikkale,39.8504,33.53,Turkey,TUR,211138.0
Abha,18.2301,42.5001,Saudi Arabia,SAU,210886.0
San-Pedro,4.7704,-6.64,Côte D’Ivoire,CIV,210273.0
Toamasina,-18.1818,49.405,Madagascar,MDG,210226.0
Pali,25.7904,73.3299,India,IND,210103.0
Thai Binh,20.4503,106.333,Vietnam,VNM,210000.0
Oral,51.2711,51.335,Kazakhstan,KAZ,209788.0
Presidente Prudente,-22.12,-51.39,Brazil,BRA,209502.0
Sanming,26.23,117.58,China,CHN,209444.0
Rennes,48.1,-1.67,France,FRA,209375.0
Ijebu-Ode,6.8204,3.92,Nigeria,NGA,209175.0
Tema,5.6404,0.01,Ghana,GHA,209000.0
Santander,43.3805,-3.8,Spain,ESP,208763.0
Green Bay,44.515,-87.9896,United States,USA,208625.0
Sidi Bel Abbes,35.1903,-0.64,Algeria,DZA,208604.0
Bojnurd,37.47,57.32,Iran,IRN,208582.0
La Romana,18.417,-68.9666,Dominican Republic,DOM,208437.0
Hajjah,15.6917,43.6021,Yemen,YEM,208287.0
Waitakere,-36.8524,174.5543,New Zealand,NZL,208100.0
Lobito,-12.37,13.5412,Angola,AGO,207932.0
College Station,30.5852,-96.296,United States,USA,207308.0
Pingliang,35.5304,106.6801,China,CHN,207256.0
Moreno Valley,33.9244,-117.2045,United States,USA,207226.0
Laoag,18.1988,120.5936,Philippines,PHL,207048.0
Bahir Dar,11.6001,37.3833,Ethiopia,ETH,206748.0
Beersheba,31.25,34.83,Israel,ISR,206408.0
Korla,41.73,86.15,China,CHN,206373.0
Salzburg,47.8105,13.04,Austria,AUT,206279.0
Kalemie,-5.9333,29.2,Congo (Kinshasa),COD,206257.0
Amarillo,35.1989,-101.831,United States,USA,206072.0
Portland,43.6773,-70.2715,United States,USA,206023.0
Northcote,-36.7913,174.7758,New Zealand,NZL,205605.0
Jiutai,44.1447,125.8443,China,CHN,205399.0
Campeche,19.83,-90.5,Mexico,MEX,205212.0
Puqi,29.7204,113.88,China,CHN,205164.0
Sao Carlos,-22.02,-47.89,Brazil,BRA,205035.0
Fargo,46.8653,-96.8292,United States,USA,204820.0
Funchal,32.65,-16.88,Portugal,PRT,204767.0
Criciuma,-28.68,-49.39,Brazil,BRA,204217.0
Lampang,18.2916,99.4813,Thailand,THA,204081.0
Santa Barbara,34.4285,-119.7202,United States,USA,204034.0
Huntington,40.8522,-73.3824,United States,USA,204011.0
Colon,9.365,-79.875,Panama,PAN,204000.0
Norwich,41.5495,-72.0882,United States,USA,203916.0
Salalah,17.0255,54.0852,Oman,OMN,203877.0
Sibu,2.303,111.843,Malaysia,MYS,203832.0
Las Tunas,20.9601,-76.9544,Cuba,CUB,203684.0
Lianzhou,24.7815,112.3825,China,CHN,203639.0
Guaratingueta,-22.82,-45.19,Brazil,BRA,203580.0
Pisa,43.7205,10.4,Italy,ITA,203336.0
Agartala,23.8354,91.28,India,IND,203264.0
Erfurt,50.9701,11.03,Germany,DEU,203254.0
Timon,-5.115,-42.845,Brazil,BRA,203157.0
Edea,3.8005,10.12,Cameroon,CMR,203149.0
Rostock,54.0704,12.15,Germany,DEU,203080.0
Glendale,34.1818,-118.2468,United States,USA,203054.0
Ongole,15.5604,80.05,India,IND,202860.0
Djougou,9.7004,1.68,Benin,BEN,202810.0
Khowy,38.5304,44.97,Iran,IRN,202728.0
Mossoro,-5.19,-37.34,Brazil,BRA,202583.0
Barisal,22.7004,90.375,Bangladesh,BGD,202242.0
Biskra,34.86,5.73,Algeria,DZA,202103.0
Angren,41.0304,70.1549,Uzbekistan,UZB,202070.0
Taranto,40.5084,17.23,Italy,ITA,202033.0
Yonkers,40.9466,-73.8674,United States,USA,202019.0
Pskov,57.83,28.3299,Russia,RUS,201990.0
Al Khums,32.6604,14.26,Libya,LBY,201943.0
Minatitlan,17.9805,-94.53,Mexico,MEX,201902.0
Huntington Beach,33.696,-118.0025,United States,USA,201874.0
Chiniot,31.72,72.98,Pakistan,PAK,201781.0
Pingzhen,24.9439,121.2161,Taiwan,TWN,201632.0
San Miguel,13.4833,-88.1833,El Salvador,SLV,201563.0
Lashkar Gah,31.583,64.36,Afghanistan,AFG,201546.0
Dasoguz,41.84,59.965,Turkmenistan,TKM,201424.0
Sete Lagoas,-19.4496,-44.25,Brazil,BRA,201334.0
Gedaref,14.04,35.38,Sudan,SDN,201282.0
Cartagena,37.6004,-0.98,Spain,ESP,201274.0
Puri,19.8204,85.9,India,IND,201026.0
Aurora,41.7637,-88.2901,United States,USA,200965.0
Dindigul,10.38,78.0,India,IND,200797.0
Haldia,22.0257,88.0583,India,IND,200762.0
Moratuwa,6.7804,79.88,Sri Lanka,LKA,200000.0
Rivera,-30.8996,-55.56,Uruguay,URY,200000.0
Pokhara,28.264,83.972,Nepal,NPL,200000.0
Zhubei,24.8333,121.0119,Taiwan,TWN,200000.0
Bergamo,45.7004,9.67,Italy,ITA,200000.0
Nema,16.6171,-7.25,Mauritania,MRT,200000.0
Az Zawiyah,32.7604,12.72,Libya,LBY,200000.0
Kasama,-10.1996,31.1799,Zambia,ZMB,200000.0
Maimanah,35.9302,64.7701,Afghanistan,AFG,199795.0
Gainesville,29.6804,-82.3458,United States,USA,199695.0
Bacau,46.5784,26.9196,Romania,ROU,199668.0
Taza,34.2204,-4.02,Morocco,MAR,199633.0
Batu Pahat,1.8504,102.9333,Malaysia,MYS,199619.0
Balakovo,52.03,47.8,Russia,RUS,199572.0
Armavir,45.0004,41.13,Russia,RUS,199548.0
Rosetta,31.4604,30.39,Egypt,EGY,199509.0
Bila Tserkva,49.7743,30.1309,Ukraine,UKR,199163.0
Saskatoon,52.17,-106.67,Canada,CAN,198958.0
Aydin,37.85,27.85,Turkey,TUR,198857.0
Huangyan,28.65,121.25,China,CHN,198713.0
Bulandshahr,28.4104,77.8484,India,IND,198612.0
Ashino,42.975,144.3747,Japan,JPN,198566.0
Purnea,25.7854,87.48,India,IND,198453.0
Martapura,-3.4135,114.8365,Indonesia,IDN,198239.0
Gemena,3.26,19.77,Congo (Kinshasa),COD,198056.0
Thanh Hoa,19.82,105.8,Vietnam,VNM,197551.0
Mbanza-Ngungu,-5.2496,14.86,Congo (Kinshasa),COD,197545.0
Kofu,35.6504,138.5833,Japan,JPN,197540.0
Salamanca,20.5704,-101.2,Mexico,MEX,197524.0
Talca,-35.455,-71.67,Chile,CHL,197479.0
Proddatur,14.7504,78.57,India,IND,197451.0
El Tigre,8.8903,-64.26,Venezuela,VEN,197440.0
Gurgaon,28.45,77.02,India,IND,197340.0
Burhanpur,21.3004,76.13,India,IND,197233.0
Kure,34.251,132.5656,Japan,JPN,196991.0
Cartago,9.87,-83.93,Costa Rica,CRI,196946.0
Porlamar,10.9604,-63.85,Venezuela,VEN,196934.0
Reims,49.2504,4.03,France,FRA,196565.0
Olympia,47.0417,-122.8959,United States,USA,196078.0
Engel's,51.5004,46.12,Russia,RUS,196011.0
North Port,27.0577,-82.1975,United States,USA,195992.0
Burgas,42.5146,27.4746,Bulgaria,BGR,195966.0
Ghandinagar,23.3004,72.6399,India,IND,195891.0
Spring Valley,36.0987,-115.2619,United States,USA,195646.0
Iskandar,41.5507,69.6807,Uzbekistan,UZB,195633.0
Naka,37.4504,138.86,Japan,JPN,195318.0
Coro,11.42,-69.68,Venezuela,VEN,195227.0
Brikama,13.2804,-16.6599,"Gambia, The",GMB,195136.0
Severodvinsk,64.57,39.83,Russia,RUS,194292.0
Al Jahra',29.3375,47.6581,Kuwait,KWT,194193.0
Huntington,38.4109,-82.4344,United States,USA,194155.0
Deltona,28.905,-81.2136,United States,USA,194061.0
Bongor,10.2859,15.3872,Chad,TCD,193941.0
Sunrise Manor,36.1785,-115.049,United States,USA,193854.0
Grand Prairie,32.687,-97.0209,United States,USA,193837.0
Divinopolis,-20.1495,-44.9,Brazil,BRA,193832.0
Salinas,36.6884,-121.6317,United States,USA,193590.0
Tarakan,3.3,117.633,Indonesia,IDN,193069.0
Machilipatnam,16.2004,81.18,India,IND,192827.0
Oxford,51.7704,-1.25,United Kingdom,GBR,192796.0
Ciudad Madero,22.3189,-97.8361,Mexico,MEX,192736.0
Bayamo,20.3795,-76.6433,Cuba,CUB,192632.0
Klaipeda,55.7204,21.1199,Lithuania,LTU,192307.0
Dunhua,43.3505,128.22,China,CHN,191870.0
Ziguinchor,12.59,-16.29,Senegal,SEN,191716.0
Waterbury,41.5583,-73.0361,United States,USA,191484.0
Barrancabermeja,7.09,-73.85,Colombia,COL,191403.0
Zlatoust,55.175,59.65,Russia,RUS,191366.0
Muar,2.0337,102.5666,Malaysia,MYS,191346.0
Overland Park,38.887,-94.687,United States,USA,191278.0
Dhamar,14.5575,44.3875,Yemen,YEM,191259.0
Valera,9.32,-70.62,Venezuela,VEN,191167.0
Bhiwani,28.81,76.125,India,IND,190855.0
Norwich,52.6304,1.3,United Kingdom,GBR,190756.0
Butuan,8.9495,125.5436,Philippines,PHL,190557.0
Caen,49.1838,-0.35,France,FRA,190099.0
Saint-Denis,-20.8789,55.4481,Reunion,REU,190047.0
Saddiqabad,28.3006,70.1302,Pakistan,PAK,189876.0
La Paz,24.14,-110.32,Mexico,MEX,189767.0
Son Tay,21.1382,105.505,Vietnam,VNM,189547.0
Aberdeen,57.1704,-2.08,United Kingdom,GBR,189364.0
Syzran',53.17,48.48,Russia,RUS,189338.0
Dong Hoi,17.4833,106.6,Vietnam,VNM,189265.0
Mwene-Ditu,-7.0,23.44,Congo (Kinshasa),COD,189177.0
Kabwe,-14.44,28.45,Zambia,ZMB,188979.0
Quelimane,-17.88,36.89,Mozambique,MOZ,188964.0
Cork,51.8986,-8.4958,Ireland,IRL,188907.0
Parakou,9.34,2.62,Benin,BEN,188853.0
San Fernando del Valle de Catamarca,-28.47,-65.78,Argentina,ARG,188812.0
Nandyal,15.5204,78.48,India,IND,188654.0
Waco,31.5597,-97.1882,United States,USA,188448.0
Angers,47.48,-0.53,France,FRA,188380.0
Mostaganem,35.9404,0.09,Algeria,DZA,188354.0
Erie,42.1168,-80.0733,United States,USA,188079.0
Paarl,-33.6996,18.96,South Africa,ZAF,187865.0
Rio Grande,-32.0495,-52.12,Brazil,BRA,187838.0
Szeged,46.2504,20.15,Hungary,HUN,187765.0
Arapiraca,-9.75,-36.67,Brazil,BRA,187668.0
Ternate,0.793,127.363,Indonesia,IDN,187521.0
Petropavlovsk-Kamchatskiy,53.062,158.623,Russia,RUS,187282.0
Kimch'aek-si,40.6723,129.2027,"Korea, North",PRK,187270.0
Puerto Vallarta,20.6771,-105.245,Mexico,MEX,187134.0
Gibraltar,36.1324,-5.3781,Gibraltar,GIB,187083.0
Cachoeiro de Itapemirim,-20.85,-41.13,Brazil,BRA,187019.0
Pinar del Rio,22.4175,-83.6981,Cuba,CUB,186990.0
Manp'o,41.1454,126.2958,"Korea, North",PRK,186827.0
Olsztyn,53.8,20.48,Poland,POL,186670.0
